{"success":true,"result":{"resource_id":"A01010000C-000674-011","limit":2000,"total":1528,"fields":[{"type":"text","id":"CityName"},{"type":"text","id":"RegionName"},{"type":"text","id":"Address"},{"type":"text","id":"DeptNm"},{"type":"text","id":"BranchNm"},{"type":"text","id":"Longitude"},{"type":"text","id":"Latitude"},{"type":"text","id":"direct"},{"type":"text","id":"limit"}],"records":[{"CityName":"設置縣市","RegionName":"設置市區鄉鎮","Address":"設置地址","DeptNm":"管轄警局","BranchNm":"管轄分局","Longitude":"經度","Latitude":"緯度","direct":"拍攝方向","limit":"速限"},{"CityName":"宜蘭縣","RegionName":"宜蘭市","Address":"宜興橋南端(往羅東)+50m南下","DeptNm":"宜蘭縣政府警察局","BranchNm":"宜蘭分局","Longitude":"121.759873","Latitude":"24.760711","direct":"北向南","limit":"50"},{"CityName":"宜蘭縣","RegionName":"宜蘭市","Address":"中山路1段560號前北上","DeptNm":"宜蘭縣政府警察局","BranchNm":"宜蘭分局","Longitude":"121.761045","Latitude":"24.738028","direct":"南向北","limit":"60"},{"CityName":"宜蘭縣","RegionName":"宜蘭市","Address":"台9線79k+550m環市東路與192線路口北上","DeptNm":"宜蘭縣政府警察局","BranchNm":"宜蘭分局","Longitude":"121.770743","Latitude":"24.767034","direct":"南向北","limit":"70"},{"CityName":"宜蘭縣","RegionName":"宜蘭市","Address":"台9線80k+700m環市東路黎霧橋南端南下","DeptNm":"宜蘭縣政府警察局","BranchNm":"宜蘭分局","Longitude":"121.771352","Latitude":"24.756818","direct":"北向南","limit":"70"},{"CityName":"宜蘭縣","RegionName":"宜蘭市","Address":"台9線81k+650m環市東路北上","DeptNm":"宜蘭縣政府警察局","BranchNm":"宜蘭分局","Longitude":"121.771590","Latitude":"24.748297","direct":"南向北","limit":"70"},{"CityName":"宜蘭縣","RegionName":"宜蘭市","Address":"台9線82k+200m環市東路與宜14線路口南下","DeptNm":"宜蘭縣政府警察局","BranchNm":"宜蘭分局","Longitude":"121.771682","Latitude":"24.743659","direct":"北向南","limit":"70"},{"CityName":"宜蘭縣","RegionName":"宜蘭市","Address":"191甲線與宜14線路口北上","DeptNm":"宜蘭縣政府警察局","BranchNm":"宜蘭分局","Longitude":"121.781764","Latitude":"24.744093","direct":"南向北","limit":"60"},{"CityName":"宜蘭縣","RegionName":"羅東鎮","Address":"公正路324號西向","DeptNm":"宜蘭縣政府警察局","BranchNm":"羅東分局","Longitude":"121.761418","Latitude":"24.680589","direct":"東向西","limit":"40"},{"CityName":"宜蘭縣","RegionName":"蘇澳鎮","Address":"台9線131ｋ+700ｍ南澳段北上","DeptNm":"宜蘭縣政府警察局","BranchNm":"蘇澳分局","Longitude":"121.793661","Latitude":"24.462545","direct":"南北雙向","limit":"50"},{"CityName":"宜蘭縣","RegionName":"蘇澳鎮","Address":"台9線100k新城段北上","DeptNm":"宜蘭縣政府警察局","BranchNm":"蘇澳分局","Longitude":"121.821268","Latitude":"24.615464","direct":"南北雙向","limit":"60"},{"CityName":"宜蘭縣","RegionName":"蘇澳鎮","Address":"台9線124k+570m新澳隧道北上","DeptNm":"宜蘭縣政府警察局","BranchNm":"蘇澳分局","Longitude":"121.830233","Latitude":"24.490236","direct":"南向北","limit":"40"},{"CityName":"宜蘭縣","RegionName":"蘇澳鎮","Address":"台2線164k+390m港邊段南下","DeptNm":"宜蘭縣政府警察局","BranchNm":"蘇澳分局","Longitude":"121.852780","Latitude":"24.611954","direct":"南北雙向","limit":"70"},{"CityName":"宜蘭縣","RegionName":"蘇澳鎮","Address":"台2線167k+002m移山路北上","DeptNm":"宜蘭縣政府警察局","BranchNm":"蘇澳分局","Longitude":"121.859499","Latitude":"24.590791","direct":"南北雙向","limit":"60"},{"CityName":"宜蘭縣","RegionName":"頭城鎮","Address":"台9線69ｋ+20ｍ北宜路一段南下","DeptNm":"宜蘭縣政府警察局","BranchNm":"礁溪分局","Longitude":"121.792649","Latitude":"24.845619","direct":"南北雙向","limit":"60"},{"CityName":"宜蘭縣","RegionName":"頭城鎮","Address":"宜3線3k+850m宜三路南下","DeptNm":"宜蘭縣政府警察局","BranchNm":"礁溪分局","Longitude":"121.796028","Latitude":"24.849210","direct":"南北雙向","limit":"50"},{"CityName":"宜蘭縣","RegionName":"頭城鎮","Address":"191線2ｋ+50ｍ中崙段南下","DeptNm":"宜蘭縣政府警察局","BranchNm":"礁溪分局","Longitude":"121.801373","Latitude":"24.828067","direct":"南北雙向","limit":"60"},{"CityName":"宜蘭縣","RegionName":"頭城鎮","Address":"台2線139k+738ｍ竹安段南下","DeptNm":"宜蘭縣政府警察局","BranchNm":"礁溪分局","Longitude":"121.820688","Latitude":"24.824111","direct":"南北雙向","limit":"60"},{"CityName":"宜蘭縣","RegionName":"頭城鎮","Address":"台2線133k+769ｍ港口段南下","DeptNm":"宜蘭縣政府警察局","BranchNm":"礁溪分局","Longitude":"121.835544","Latitude":"24.871765","direct":"南北雙向","limit":"60"},{"CityName":"宜蘭縣","RegionName":"頭城鎮","Address":"台2線129k+309m梗枋國小南下","DeptNm":"宜蘭縣政府警察局","BranchNm":"礁溪分局","Longitude":"121.863454","Latitude":"24.900975","direct":"南北雙向","limit":"50"},{"CityName":"宜蘭縣","RegionName":"頭城鎮","Address":"台2線128k+754m梗枋段南下","DeptNm":"宜蘭縣政府警察局","BranchNm":"礁溪分局","Longitude":"121.866727","Latitude":"24.903869","direct":"南北雙向","limit":"60"},{"CityName":"宜蘭縣","RegionName":"頭城鎮","Address":"台2線123ｋ+642ｍ大溪段北上","DeptNm":"宜蘭縣政府警察局","BranchNm":"礁溪分局","Longitude":"121.891277","Latitude":"24.939224","direct":"南北雙向","limit":"50"},{"CityName":"宜蘭縣","RegionName":"頭城鎮","Address":"台2線126k+757m北關段北上","DeptNm":"宜蘭縣政府警察局","BranchNm":"礁溪分局","Longitude":"121.897606","Latitude":"24.914801","direct":"南北雙向","limit":"60"},{"CityName":"宜蘭縣","RegionName":"頭城鎮","Address":"台2線122k+634ｍ大溪段南下","DeptNm":"宜蘭縣政府警察局","BranchNm":"礁溪分局","Longitude":"121.900106","Latitude":"24.941515","direct":"北向南","limit":"60"},{"CityName":"宜蘭縣","RegionName":"頭城鎮","Address":"台2線120k+632ｍ蕃薯寮段南下","DeptNm":"宜蘭縣政府警察局","BranchNm":"礁溪分局","Longitude":"121.914235","Latitude":"24.952927","direct":"南北雙向","limit":"60"},{"CityName":"宜蘭縣","RegionName":"頭城鎮","Address":"台2線118k+49m大里段南下","DeptNm":"宜蘭縣政府警察局","BranchNm":"礁溪分局","Longitude":"121.926086","Latitude":"24.970086","direct":"南北雙向","limit":"50"},{"CityName":"宜蘭縣","RegionName":"礁溪鄉","Address":"191線6ｋ+600ｍ玉田段北上","DeptNm":"宜蘭縣政府警察局","BranchNm":"礁溪分局","Longitude":"121.784228","Latitude":"24.789582","direct":"南北雙向","limit":"60"},{"CityName":"宜蘭縣","RegionName":"壯圍鄉","Address":"191甲線與雪隧路口南下","DeptNm":"宜蘭縣政府警察局","BranchNm":"礁溪分局","Longitude":"121.778517","Latitude":"24.766776","direct":"北向南","limit":"60"},{"CityName":"宜蘭縣","RegionName":"壯圍鄉","Address":"宜16線7k+500ｍ新南段西向","DeptNm":"宜蘭縣政府警察局","BranchNm":"礁溪分局","Longitude":"121.783039","Latitude":"24.720304","direct":"東西雙向","limit":"50"},{"CityName":"宜蘭縣","RegionName":"壯圍鄉","Address":"宜16線9ｋ+500ｍ美福段東向","DeptNm":"宜蘭縣政府警察局","BranchNm":"礁溪分局","Longitude":"121.802651","Latitude":"24.719269","direct":"東西雙向","limit":"50"},{"CityName":"宜蘭縣","RegionName":"壯圍鄉","Address":"宜20線1ｋ+150m新南段西向","DeptNm":"宜蘭縣政府警察局","BranchNm":"礁溪分局","Longitude":"121.808557","Latitude":"24.727465","direct":"東西雙向","limit":"60"},{"CityName":"宜蘭縣","RegionName":"壯圍鄉","Address":"台2線147ｋ+40ｍ過嶺國小南下","DeptNm":"宜蘭縣政府警察局","BranchNm":"礁溪分局","Longitude":"121.815483","Latitude":"24.758748","direct":"南北雙向","limit":"60"},{"CityName":"宜蘭縣","RegionName":"壯圍鄉","Address":"台2線142k+480ｍ大福段北上","DeptNm":"宜蘭縣政府警察局","BranchNm":"礁溪分局","Longitude":"121.816581","Latitude":"24.799720","direct":"南北雙向","limit":"60"},{"CityName":"宜蘭縣","RegionName":"壯圍鄉","Address":"台2線150ｋ+199m公館段南下","DeptNm":"宜蘭縣政府警察局","BranchNm":"礁溪分局","Longitude":"121.819155","Latitude":"24.730360","direct":"南北雙向","limit":"60"},{"CityName":"宜蘭縣","RegionName":"員山鄉","Address":"台7線114k+550ｍ內城段東向","DeptNm":"宜蘭縣政府警察局","BranchNm":"宜蘭分局","Longitude":"121.700933","Latitude":"24.717842","direct":"東西雙向","limit":"60"},{"CityName":"宜蘭縣","RegionName":"員山鄉","Address":"宜18-2線9ｋ深溝段西向","DeptNm":"宜蘭縣政府警察局","BranchNm":"宜蘭分局","Longitude":"121.709622","Latitude":"24.707457","direct":"東西雙向","limit":"50"},{"CityName":"宜蘭縣","RegionName":"員山鄉","Address":"台7線117k八甲段西向","DeptNm":"宜蘭縣政府警察局","BranchNm":"宜蘭分局","Longitude":"121.716391","Latitude":"24.732751","direct":"東西雙向","limit":"60"},{"CityName":"宜蘭縣","RegionName":"員山鄉","Address":"宜61線900ｍ深溝段南下","DeptNm":"宜蘭縣政府警察局","BranchNm":"宜蘭分局","Longitude":"121.717964","Latitude":"24.720016","direct":"南北雙向","limit":"60"},{"CityName":"宜蘭縣","RegionName":"員山鄉","Address":"宜61線1ｋ+200ｍ深溝段北上","DeptNm":"宜蘭縣政府警察局","BranchNm":"宜蘭分局","Longitude":"121.718649","Latitude":"24.717430","direct":"南北雙向","limit":"60"},{"CityName":"宜蘭縣","RegionName":"員山鄉","Address":"宜16線溪洲路346號東向","DeptNm":"宜蘭縣政府警察局","BranchNm":"宜蘭分局","Longitude":"121.738594","Latitude":"24.714243","direct":"東西雙向","limit":"50"},{"CityName":"宜蘭縣","RegionName":"員山鄉","Address":"宜16線溪洲路150號西向","DeptNm":"宜蘭縣政府警察局","BranchNm":"宜蘭分局","Longitude":"121.748119","Latitude":"24.719000","direct":"東西雙向","limit":"50"},{"CityName":"宜蘭縣","RegionName":"冬山鄉","Address":"台9線94k+450ｍ冬山段南下","DeptNm":"宜蘭縣政府警察局","BranchNm":"羅東分局","Longitude":"121.785569","Latitude":"24.645604","direct":"北向南","limit":"60"},{"CityName":"宜蘭縣","RegionName":"五結鄉","Address":"宜22線1k+400ｍ二結段東向","DeptNm":"宜蘭縣政府警察局","BranchNm":"羅東分局","Longitude":"121.766192","Latitude":"24.710798","direct":"東西雙向","limit":"60"},{"CityName":"宜蘭縣","RegionName":"五結鄉","Address":"台7丙線28k+75ｍ中山路東向","DeptNm":"宜蘭縣政府警察局","BranchNm":"羅東分局","Longitude":"121.789493","Latitude":"24.672573","direct":"東西雙向","limit":"60"},{"CityName":"宜蘭縣","RegionName":"五結鄉","Address":"191甲線與宜24線路口南下","DeptNm":"宜蘭縣政府警察局","BranchNm":"羅東分局","Longitude":"121.791144","Latitude":"24.688986","direct":"北向南","limit":"60"},{"CityName":"宜蘭縣","RegionName":"五結鄉","Address":"191甲線與196線路口北上","DeptNm":"宜蘭縣政府警察局","BranchNm":"羅東分局","Longitude":"121.792581","Latitude":"24.683813","direct":"南向北","limit":"60"},{"CityName":"宜蘭縣","RegionName":"五結鄉","Address":"五結鄉191甲線與傳藝路口南下","DeptNm":"宜蘭縣政府警察局","BranchNm":"羅東分局","Longitude":"121.793192","Latitude":"24.680323","direct":"北向南","limit":"60"},{"CityName":"宜蘭縣","RegionName":"五結鄉","Address":"五結鄉台七丙線29K+800M親河路西向","DeptNm":"宜蘭縣政府警察局","BranchNm":"羅東分局","Longitude":"121.805192","Latitude":"24.673484","direct":"東西雙向","limit":"60"},{"CityName":"宜蘭縣","RegionName":"五結鄉","Address":"宜22線6ｋ錦草段西向","DeptNm":"宜蘭縣政府警察局","BranchNm":"羅東分局","Longitude":"121.810574","Latitude":"24.709386","direct":"東西雙向","limit":"60"},{"CityName":"宜蘭縣","RegionName":"五結鄉","Address":"台2線157k+652m利澤段北上","DeptNm":"宜蘭縣政府警察局","BranchNm":"羅東分局","Longitude":"121.828344","Latitude":"24.664686","direct":"南向北","limit":"60"},{"CityName":"宜蘭縣","RegionName":"三星鄉","Address":"196線3ｋ+800ｍ萬富東向","DeptNm":"宜蘭縣政府警察局","BranchNm":"三星分局","Longitude":"121.677256","Latitude":"24.677272","direct":"東西雙向","limit":"60"},{"CityName":"宜蘭縣","RegionName":"三星鄉","Address":"台7丙線18ｋ+500ｍ大隱段東向","DeptNm":"宜蘭縣政府警察局","BranchNm":"三星分局","Longitude":"121.697628","Latitude":"24.667261","direct":"東西雙向","limit":"60"},{"CityName":"宜蘭縣","RegionName":"三星鄉","Address":"台7丙線20ｋ大隱段西向","DeptNm":"宜蘭縣政府警察局","BranchNm":"三星分局","Longitude":"121.712174","Latitude":"24.670205","direct":"東西雙向","limit":"60"},{"CityName":"宜蘭縣","RegionName":"三星鄉","Address":"196線7ｋ+900ｍ大義段西向","DeptNm":"宜蘭縣政府警察局","BranchNm":"三星分局","Longitude":"121.718395","Latitude":"24.687069","direct":"東西雙向","limit":"60"},{"CityName":"宜蘭縣","RegionName":"三星鄉","Address":"宜61線3ｋ+600ｍ大洲段南下","DeptNm":"宜蘭縣政府警察局","BranchNm":"三星分局","Longitude":"121.727883","Latitude":"24.698070","direct":"北向南","limit":"60"},{"CityName":"宜蘭縣","RegionName":"三星鄉","Address":"宜61線3ｋ+800ｍ大洲段北上","DeptNm":"宜蘭縣政府警察局","BranchNm":"三星分局","Longitude":"121.728929","Latitude":"24.696065","direct":"南北雙向","limit":"60"},{"CityName":"宜蘭縣","RegionName":"三星鄉","Address":"宜196線11ｋ大洲段東向","DeptNm":"宜蘭縣政府警察局","BranchNm":"三星分局","Longitude":"121.742263","Latitude":"24.700823","direct":"東西雙向","limit":"50"},{"CityName":"宜蘭縣","RegionName":"南澳鄉","Address":"台9線130ｋ+450ｍ南澳段南下","DeptNm":"宜蘭縣政府警察局","BranchNm":"蘇澳分局","Longitude":"121.806452","Latitude":"24.467581","direct":"南北雙向","limit":"50"},{"CityName":"新竹縣","RegionName":"竹北市","Address":"西濱公路一段鳳鼻隧道南端(台15線69公里)雙向","DeptNm":"新竹縣政府警察局","BranchNm":"竹北分局","Longitude":"120.954720","Latitude":"24.879170","direct":"","limit":""},{"CityName":"新竹縣","RegionName":"竹北市","Address":"西濱公路與埔和路口(台15線64.4公里)南向","DeptNm":"新竹縣政府警察局","BranchNm":"竹北分局","Longitude":"120.971940","Latitude":"24.901670","direct":"","limit":""},{"CityName":"新竹縣","RegionName":"竹北市","Address":"西濱公路與117線路口(台15線62公里)北向","DeptNm":"新竹縣政府警察局","BranchNm":"竹北分局","Longitude":"120.989170","Latitude":"24.924170","direct":"","limit":""},{"CityName":"新竹縣","RegionName":"竹北市","Address":"中華路1432號前(台1線65.5公里)南向","DeptNm":"新竹縣政府警察局","BranchNm":"竹北分局","Longitude":"120.991525","Latitude":"24.863388","direct":"","limit":""},{"CityName":"新竹縣","RegionName":"竹北市","Address":"台一線大眉南下路口","DeptNm":"新竹縣政府警察局","BranchNm":"竹北分局","Longitude":"120.996110","Latitude":"24.858330","direct":"","limit":""},{"CityName":"新竹縣","RegionName":"竹北市","Address":"中華路、鳳岡路口(台1線67.2公里)雙向","DeptNm":"新竹縣政府警察局","BranchNm":"竹北分局","Longitude":"120.996110","Latitude":"24.859170","direct":"","limit":""},{"CityName":"新竹縣","RegionName":"竹北市","Address":"中華路1號前(台1線70.6公里)北向","DeptNm":"新竹縣政府警察局","BranchNm":"竹北分局","Longitude":"120.997220","Latitude":"24.825000","direct":"","limit":""},{"CityName":"新竹縣","RegionName":"竹北市","Address":"八德路一段35號前(台1線61公里)南向","DeptNm":"新竹縣政府警察局","BranchNm":"竹北分局","Longitude":"121.026940","Latitude":"24.883610","direct":"","limit":""},{"CityName":"新竹縣","RegionName":"竹北市","Address":"八德路、千禧路口(台1線60.6公里)北向","DeptNm":"新竹縣政府警察局","BranchNm":"竹北分局","Longitude":"121.028330","Latitude":"24.885560","direct":"","limit":""},{"CityName":"新竹縣","RegionName":"竹北市","Address":"東興路二段316號前(120線7.1公里)雙向","DeptNm":"新竹縣政府警察局","BranchNm":"竹北分局","Longitude":"121.055011","Latitude":"24.797277","direct":"","limit":""},{"CityName":"新竹縣","RegionName":"竹北市","Address":"八德路2段(台1線54.9公里)雙向","DeptNm":"新竹縣政府警察局","BranchNm":"竹北分局","Longitude":"121.084523","Latitude":"24.887028","direct":"","limit":""},{"CityName":"新竹縣","RegionName":"竹東鎮","Address":"台3線91.6公里北向","DeptNm":"新竹縣政府警察局","BranchNm":"竹東分局","Longitude":"120.978806","Latitude":"24.694741","direct":"","limit":""},{"CityName":"新竹縣","RegionName":"竹東鎮","Address":"雙園路2段(竹82線1公里)南向","DeptNm":"新竹縣政府警察局","BranchNm":"竹東分局","Longitude":"120.997581","Latitude":"24.767564","direct":"","limit":""},{"CityName":"新竹縣","RegionName":"竹東鎮","Address":"台三線北上91.6公里北向","DeptNm":"新竹縣政府警察局","BranchNm":"竹東分局","Longitude":"121.017780","Latitude":"24.688610","direct":"","limit":""},{"CityName":"新竹縣","RegionName":"竹東鎮","Address":"中興路四段372號前(122線14公里)西向","DeptNm":"新竹縣政府警察局","BranchNm":"竹東分局","Longitude":"121.029440","Latitude":"24.779720","direct":"","limit":""},{"CityName":"新竹縣","RegionName":"竹東鎮","Address":"中盛村路口(台3線84.7公里)南向","DeptNm":"新竹縣政府警察局","BranchNm":"竹東分局","Longitude":"121.031390","Latitude":"24.691390","direct":"","limit":""},{"CityName":"新竹縣","RegionName":"竹東鎮","Address":"台三線中豐路老爺山莊路口","DeptNm":"新竹縣政府警察局","BranchNm":"竹東分局","Longitude":"121.047780","Latitude":"24.774440","direct":"","limit":""},{"CityName":"新竹縣","RegionName":"竹東鎮","Address":"台68線12.85公里(快速道路)東向","DeptNm":"新竹縣政府警察局","BranchNm":"竹東分局","Longitude":"121.065280","Latitude":"24.764440","direct":"","limit":""},{"CityName":"新竹縣","RegionName":"竹東鎮","Address":"台68線12.55公里(快速道路)西向","DeptNm":"新竹縣政府警察局","BranchNm":"竹東分局","Longitude":"121.065560","Latitude":"24.762780","direct":"","limit":""},{"CityName":"新竹縣","RegionName":"竹東鎮","Address":"中興路一段109號前(122線18.16公里)東向","DeptNm":"新竹縣政府警察局","BranchNm":"竹東分局","Longitude":"121.075639","Latitude":"24.752638","direct":"","limit":""},{"CityName":"新竹縣","RegionName":"竹東鎮","Address":"中豐路三段333巷口(台3線78公里)北向","DeptNm":"新竹縣政府警察局","BranchNm":"竹東分局","Longitude":"121.078272","Latitude":"24.723793","direct":"","limit":""},{"CityName":"新竹縣","RegionName":"新埔鎮","Address":"文山路亞東段369號西向","DeptNm":"新竹縣政府警察局","BranchNm":"新埔分局","Longitude":"121.059170","Latitude":"24.825000","direct":"","limit":""},{"CityName":"新竹縣","RegionName":"新埔鎮","Address":"新關路1046巷口東向","DeptNm":"新竹縣政府警察局","BranchNm":"新埔分局","Longitude":"121.101670","Latitude":"24.817780","direct":"","limit":""},{"CityName":"新竹縣","RegionName":"新埔鎮","Address":"石光里702號前(118線17.3公里)西向","DeptNm":"新竹縣政府警察局","BranchNm":"新埔分局","Longitude":"121.112780","Latitude":"24.816940","direct":"","limit":""},{"CityName":"新竹縣","RegionName":"新埔鎮","Address":"南新里新城9鄰1號(台3線62.3公里)北向","DeptNm":"新竹縣政府警察局","BranchNm":"新埔分局","Longitude":"121.173060","Latitude":"24.763610","direct":"","limit":""},{"CityName":"新竹縣","RegionName":"新埔鎮","Address":"190號東光陸橋(台3線60.6公里)南向","DeptNm":"新竹縣政府警察局","BranchNm":"新埔分局","Longitude":"121.176670","Latitude":"24.776940","direct":"","limit":""},{"CityName":"新竹縣","RegionName":"橫山鄉","Address":"富林路三段、文德路口(120線10.4公里)東向","DeptNm":"新竹縣政府警察局","BranchNm":"橫山分局","Longitude":"121.073610","Latitude":"24.774440","direct":"","limit":""},{"CityName":"新竹縣","RegionName":"橫山鄉","Address":"富林路二段竹林交流道(120線11.8公里)西向","DeptNm":"新竹縣政府警察局","BranchNm":"橫山分局","Longitude":"121.079440","Latitude":"24.764440","direct":"","limit":""},{"CityName":"新竹縣","RegionName":"橫山鄉","Address":"中豐路一段、站前街口(台3線72.9公里)南向","DeptNm":"新竹縣政府警察局","BranchNm":"橫山分局","Longitude":"121.116940","Latitude":"24.720280","direct":"","limit":""},{"CityName":"苗栗縣","RegionName":"苗栗市","Address":"臺13線35.2公里處","DeptNm":"苗栗縣警察局","BranchNm":"苗栗分局","Longitude":"120.807780","Latitude":"24.535830","direct":"南向北","limit":"60"},{"CityName":"苗栗縣","RegionName":"苗栗市","Address":"新川里柑園5號前處","DeptNm":"苗栗縣警察局","BranchNm":"苗栗分局","Longitude":"120.808890","Latitude":"24.569440","direct":"東向西","limit":"60"},{"CityName":"苗栗縣","RegionName":"苗栗市","Address":"臺13線30.3公里處","DeptNm":"苗栗縣警察局","BranchNm":"苗栗分局","Longitude":"120.820051","Latitude":"24.561242","direct":"南北雙向","limit":"50"},{"CityName":"苗栗縣","RegionName":"苗栗市","Address":"臺13線31.1公里處(信義街口)","DeptNm":"苗栗縣警察局","BranchNm":"苗栗分局","Longitude":"120.820051","Latitude":"24.561242","direct":"南向北","limit":"50"},{"CityName":"苗栗縣","RegionName":"苗栗市","Address":"臺6線(經國路)14.5公里處","DeptNm":"苗栗縣警察局","BranchNm":"苗栗分局","Longitude":"120.833890","Latitude":"24.555000","direct":"東西雙向","limit":"70"},{"CityName":"苗栗縣","RegionName":"苑裡鎮","Address":"苑北里中山路與成功路口處","DeptNm":"苗栗縣警察局","BranchNm":"通霄分局","Longitude":"120.652810","Latitude":"24.445635","direct":"北向南","limit":"50"},{"CityName":"苗栗縣","RegionName":"苑裡鎮","Address":"140線8.1公里處","DeptNm":"苗栗縣警察局","BranchNm":"通霄分局","Longitude":"120.677505","Latitude":"24.409826","direct":"西向東","limit":"60"},{"CityName":"苗栗縣","RegionName":"苑裡鎮","Address":"140線與苗47之1線口處","DeptNm":"苗栗縣警察局","BranchNm":"通霄分局","Longitude":"120.677505","Latitude":"24.409826","direct":"東向西","limit":"50"},{"CityName":"苗栗縣","RegionName":"苑裡鎮","Address":"140線與121線口處","DeptNm":"苗栗縣警察局","BranchNm":"通霄分局","Longitude":"120.698482","Latitude":"24.384112","direct":"東向西","limit":"60"},{"CityName":"苗栗縣","RegionName":"苑裡鎮","Address":"臺1線140.8公里處(臨海路口)","DeptNm":"苗栗縣警察局","BranchNm":"通霄分局","Longitude":"120.821427","Latitude":"24.560159","direct":"北向南","limit":"60"},{"CityName":"苗栗縣","RegionName":"通霄鎮","Address":"臺1線124.1公里處(拱天宮前)","DeptNm":"苗栗縣警察局","BranchNm":"通霄分局","Longitude":"120.678431","Latitude":"24.492468","direct":"北向南","limit":"60"},{"CityName":"苗栗縣","RegionName":"通霄鎮","Address":"臺1線124.8公里處(啟新國中前)","DeptNm":"苗栗縣警察局","BranchNm":"通霄分局","Longitude":"120.691696","Latitude":"24.516985","direct":"南向北","limit":"60"},{"CityName":"苗栗縣","RegionName":"通霄鎮","Address":"臺1線137.2公里處(五福國小陸橋下)","DeptNm":"苗栗縣警察局","BranchNm":"通霄分局","Longitude":"120.691696","Latitude":"24.516985","direct":"南向北","limit":"60"},{"CityName":"苗栗縣","RegionName":"通霄鎮","Address":"128線2.4公里處","DeptNm":"苗栗縣警察局","BranchNm":"通霄分局","Longitude":"120.723499","Latitude":"24.485028","direct":"東向西","limit":"60"},{"CityName":"苗栗縣","RegionName":"通霄鎮","Address":"臺1線134.7公里與121線口處","DeptNm":"苗栗縣警察局","BranchNm":"通霄分局","Longitude":"120.821427","Latitude":"24.560159","direct":"北向南","limit":"60"},{"CityName":"苗栗縣","RegionName":"竹南鎮","Address":"臺61線91公里快(側)車道與博愛街口處","DeptNm":"苗栗縣警察局","BranchNm":"竹南分局","Longitude":"120.821427","Latitude":"24.560159","direct":"南向北","limit":"40"},{"CityName":"苗栗縣","RegionName":"竹南鎮","Address":"臺61線90.4公里與苗3-3線路口處","DeptNm":"苗栗縣警察局","BranchNm":"竹南分局","Longitude":"120.843565","Latitude":"24.677557","direct":"北向南","limit":"80"},{"CityName":"苗栗縣","RegionName":"竹南鎮","Address":"環市路與公教路口處（清寧橋前）","DeptNm":"苗栗縣警察局","BranchNm":"竹南分局","Longitude":"120.869135","Latitude":"24.685066","direct":"東向西","limit":"60"},{"CityName":"苗栗縣","RegionName":"竹南鎮","Address":"臺1己線3公里處","DeptNm":"苗栗縣警察局","BranchNm":"竹南分局","Longitude":"120.872405","Latitude":"24.688701","direct":"西向東","limit":"60"},{"CityName":"苗栗縣","RegionName":"竹南鎮","Address":"臺1線與苗2線口處(科學路口)","DeptNm":"苗栗縣警察局","BranchNm":"竹南分局","Longitude":"120.877216","Latitude":"24.688734","direct":"南向北","limit":"70"},{"CityName":"苗栗縣","RegionName":"竹南鎮","Address":"臺1己線1.3公里與明勝路口處","DeptNm":"苗栗縣警察局","BranchNm":"竹南分局","Longitude":"120.878603","Latitude":"24.700922","direct":"東向西","limit":"60"},{"CityName":"苗栗縣","RegionName":"竹南鎮","Address":"臺13線(永貞路)與公園路口處","DeptNm":"苗栗縣警察局","BranchNm":"竹南分局","Longitude":"120.885306","Latitude":"24.701554","direct":"北向南","limit":"60"},{"CityName":"苗栗縣","RegionName":"竹南鎮","Address":"臺13線2.5公里與友義路口處","DeptNm":"苗栗縣警察局","BranchNm":"竹南分局","Longitude":"120.897234","Latitude":"24.709484","direct":"南向北","limit":"60"},{"CityName":"苗栗縣","RegionName":"頭份市","Address":"124線8.45公里處","DeptNm":"苗栗縣警察局","BranchNm":"頭份分局","Longitude":"120.886940","Latitude":"24.685000","direct":"東向西","limit":"50"},{"CityName":"苗栗縣","RegionName":"頭份市","Address":"124線10.75公里處","DeptNm":"苗栗縣警察局","BranchNm":"頭份分局","Longitude":"120.888330","Latitude":"24.685830","direct":"東向西","limit":"50"},{"CityName":"苗栗縣","RegionName":"頭份市","Address":"臺1線95.2公里處(紡安紡織公司口)","DeptNm":"苗栗縣警察局","BranchNm":"頭份分局","Longitude":"120.896543","Latitude":"24.683493","direct":"南向北","limit":"60"},{"CityName":"苗栗縣","RegionName":"頭份市","Address":"124線9.8公里處","DeptNm":"苗栗縣警察局","BranchNm":"頭份分局","Longitude":"120.900830","Latitude":"24.685830","direct":"西向東","limit":"50"},{"CityName":"苗栗縣","RegionName":"頭份市","Address":"中央路(頭份國中前)","DeptNm":"苗栗縣警察局","BranchNm":"頭份分局","Longitude":"120.901115","Latitude":"24.692100","direct":"東西雙向","limit":"50"},{"CityName":"苗栗縣","RegionName":"頭份市","Address":"臺1線98.3公里處","DeptNm":"苗栗縣警察局","BranchNm":"頭份分局","Longitude":"120.902065","Latitude":"24.685159","direct":"南向北","limit":"70"},{"CityName":"苗栗縣","RegionName":"頭份市","Address":"臺1線與苗10線口處","DeptNm":"苗栗縣警察局","BranchNm":"頭份分局","Longitude":"120.902065","Latitude":"24.685159","direct":"北向南","limit":"70"},{"CityName":"苗栗縣","RegionName":"頭份市","Address":"臺1線91.6公里與科東二路口處","DeptNm":"苗栗縣警察局","BranchNm":"頭份分局","Longitude":"120.902065","Latitude":"24.685159","direct":"北向南","limit":"60"},{"CityName":"苗栗縣","RegionName":"頭份市","Address":"中華路440號處","DeptNm":"苗栗縣警察局","BranchNm":"頭份分局","Longitude":"120.905549","Latitude":"24.687418","direct":"南向北","limit":"60"},{"CityName":"苗栗縣","RegionName":"頭份市","Address":"臺13線12.1公里處（尖山國小前）","DeptNm":"苗栗縣警察局","BranchNm":"頭份分局","Longitude":"120.905549","Latitude":"24.687418","direct":"南向北","limit":"60"},{"CityName":"苗栗縣","RegionName":"頭份市","Address":"124甲線1公里東向與土牛社區路口處","DeptNm":"苗栗縣警察局","BranchNm":"頭份分局","Longitude":"120.905549","Latitude":"24.687418","direct":"西向東","limit":"50"},{"CityName":"苗栗縣","RegionName":"頭份市","Address":"124甲線1公里西向與土牛社區路口處","DeptNm":"苗栗縣警察局","BranchNm":"頭份分局","Longitude":"120.905549","Latitude":"24.687418","direct":"東向西","limit":"50"},{"CityName":"苗栗縣","RegionName":"後龍鎮","Address":"臺61線與苗11線口處","DeptNm":"苗栗縣警察局","BranchNm":"竹南分局","Longitude":"120.773605","Latitude":"24.624644","direct":"南向北","limit":"80"},{"CityName":"苗栗縣","RegionName":"後龍鎮","Address":"臺6線3.7公里處(後龍交流道附近)","DeptNm":"苗栗縣警察局","BranchNm":"竹南分局","Longitude":"120.787220","Latitude":"24.597220","direct":"西向東","limit":"60"},{"CityName":"苗栗縣","RegionName":"後龍鎮","Address":"臺1線與成功路口處","DeptNm":"苗栗縣警察局","BranchNm":"竹南分局","Longitude":"120.821427","Latitude":"24.560159","direct":"南向北","limit":"60"},{"CityName":"苗栗縣","RegionName":"後龍鎮","Address":"臺13甲線12.4公里處","DeptNm":"苗栗縣警察局","BranchNm":"竹南分局","Longitude":"120.831670","Latitude":"24.605560","direct":"北向南","limit":"60"},{"CityName":"苗栗縣","RegionName":"卓蘭鎮","Address":"臺3線146.8公里處（豐田國小旁）","DeptNm":"苗栗縣警察局","BranchNm":"大湖分局","Longitude":"120.821783","Latitude":"24.310795","direct":"北向南","limit":"60"},{"CityName":"苗栗縣","RegionName":"大湖鄉","Address":"臺3線131.6公里處","DeptNm":"苗栗縣警察局","BranchNm":"大湖分局","Longitude":"120.805664","Latitude":"24.226929","direct":"南向北","limit":"60"},{"CityName":"苗栗縣","RegionName":"大湖鄉","Address":"臺3線與中原路口處","DeptNm":"苗栗縣警察局","BranchNm":"大湖分局","Longitude":"120.860429","Latitude":"24.395475","direct":"南向北","limit":"60"},{"CityName":"苗栗縣","RegionName":"大湖鄉","Address":"臺3線119.6公里處","DeptNm":"苗栗縣警察局","BranchNm":"大湖分局","Longitude":"120.860429","Latitude":"24.395475","direct":"南、北雙向","limit":"60"},{"CityName":"苗栗縣","RegionName":"大湖鄉","Address":"臺3線與苗55線口處(南湖國小前)","DeptNm":"苗栗縣警察局","BranchNm":"大湖分局","Longitude":"120.860429","Latitude":"24.395475","direct":"南向北","limit":"60"},{"CityName":"苗栗縣","RegionName":"公館鄉","Address":"臺72線24公里處","DeptNm":"苗栗縣警察局","BranchNm":"苗栗分局","Longitude":"120.823851","Latitude":"24.537396","direct":"東西雙向","limit":"80"},{"CityName":"苗栗縣","RegionName":"公館鄉","Address":"119甲線(沿山道)3.4公里處","DeptNm":"苗栗縣警察局","BranchNm":"苗栗分局","Longitude":"120.835830","Latitude":"24.528890","direct":"北向南","limit":"60"},{"CityName":"苗栗縣","RegionName":"銅鑼鄉","Address":"臺13線與128線口處","DeptNm":"苗栗縣警察局","BranchNm":"苗栗分局","Longitude":"120.781187","Latitude":"24.463588","direct":"北向南","limit":"60"},{"CityName":"苗栗縣","RegionName":"銅鑼鄉","Address":"臺13線與苗38－1線口處（外環道與九湖橋頭）","DeptNm":"苗栗縣警察局","BranchNm":"苗栗分局","Longitude":"120.787443","Latitude":"24.490655","direct":"北向南","limit":"60"},{"CityName":"苗栗縣","RegionName":"銅鑼鄉","Address":"128線與苗27線口處","DeptNm":"苗栗縣警察局","BranchNm":"苗栗分局","Longitude":"120.790228","Latitude":"24.491713","direct":"北向南","limit":"60"},{"CityName":"苗栗縣","RegionName":"銅鑼鄉","Address":"臺72線與119甲線口處","DeptNm":"苗栗縣警察局","BranchNm":"苗栗分局","Longitude":"120.802561","Latitude":"24.499394","direct":"東向西","limit":"80"},{"CityName":"苗栗縣","RegionName":"南庄鄉","Address":"臺3線與苗20線口處","DeptNm":"苗栗縣警察局","BranchNm":"頭份分局","Longitude":"120.998709","Latitude":"24.601582","direct":"南向北","limit":"60"},{"CityName":"苗栗縣","RegionName":"三義鄉","Address":"臺13線52.4公里處(龍騰派出所前)","DeptNm":"苗栗縣警察局","BranchNm":"苗栗分局","Longitude":"120.743330","Latitude":"24.366940","direct":"北向南","limit":"60"},{"CityName":"苗栗縣","RegionName":"三義鄉","Address":"140線15.3公里處","DeptNm":"苗栗縣警察局","BranchNm":"苗栗分局","Longitude":"120.769476","Latitude":"24.389263","direct":"東西向","limit":"60"},{"CityName":"苗栗縣","RegionName":"三義鄉","Address":"140線20公里處","DeptNm":"苗栗縣警察局","BranchNm":"苗栗分局","Longitude":"120.773013","Latitude":"24.411831","direct":"東西雙向","limit":"60"},{"CityName":"苗栗縣","RegionName":"造橋鄉","Address":"臺1線102.2公里處（育達大學前）","DeptNm":"苗栗縣警察局","BranchNm":"竹南分局","Longitude":"120.844081","Latitude":"24.642979","direct":"南向北","limit":"70"},{"CityName":"苗栗縣","RegionName":"造橋鄉","Address":"南外環道0.4公里處","DeptNm":"苗栗縣警察局","BranchNm":"竹南分局","Longitude":"120.861379","Latitude":"24.624807","direct":"南北雙向","limit":"60"},{"CityName":"苗栗縣","RegionName":"造橋鄉","Address":"臺1線與苗9線口處（談文派出所前）","DeptNm":"苗栗縣警察局","BranchNm":"竹南分局","Longitude":"120.861379","Latitude":"24.624807","direct":"南向北","limit":"70"},{"CityName":"苗栗縣","RegionName":"三灣鄉","Address":"臺3線102.8公里處","DeptNm":"苗栗縣警察局","BranchNm":"頭份分局","Longitude":"120.930260","Latitude":"24.630529","direct":"南北雙向","limit":"60"},{"CityName":"苗栗縣","RegionName":"三灣鄉","Address":"臺3線95.3公里處","DeptNm":"苗栗縣警察局","BranchNm":"頭份分局","Longitude":"120.954399","Latitude":"24.648899","direct":"南向北","limit":"60"},{"CityName":"苗栗縣","RegionName":"三灣鄉","Address":"臺3線101.5公里處(大河老街口)","DeptNm":"苗栗縣警察局","BranchNm":"頭份分局","Longitude":"120.956316","Latitude":"24.636398","direct":"南向北","limit":"60"},{"CityName":"苗栗縣","RegionName":"獅潭鄉","Address":"臺3線108公里處","DeptNm":"苗栗縣警察局","BranchNm":"大湖分局","Longitude":"120.714829","Latitude":"23.803983","direct":"南、北雙向","limit":"60"},{"CityName":"苗栗縣","RegionName":"獅潭鄉","Address":"臺3線111.8公里處","DeptNm":"苗栗縣警察局","BranchNm":"大湖分局","Longitude":"120.916464","Latitude":"24.529580","direct":"北向南","limit":"60"},{"CityName":"苗栗縣","RegionName":"獅潭鄉","Address":"臺3線113.5公里處","DeptNm":"苗栗縣警察局","BranchNm":"大湖分局","Longitude":"120.916464","Latitude":"24.529580","direct":"北向南","limit":"60"},{"CityName":"苗栗縣","RegionName":"獅潭鄉","Address":"臺3線120.9公里處","DeptNm":"苗栗縣警察局","BranchNm":"大湖分局","Longitude":"120.916464","Latitude":"24.529580","direct":"北向南","limit":"60"},{"CityName":"苗栗縣","RegionName":"獅潭鄉","Address":"臺3線113.1公里處(獅潭國中旁)","DeptNm":"苗栗縣警察局","BranchNm":"大湖分局","Longitude":"120.923610","Latitude":"24.545000","direct":"北向南","limit":"60"},{"CityName":"彰化縣","RegionName":"彰化市","Address":"金馬、忠誠路口","DeptNm":"彰化縣警察局","BranchNm":"彰化分局","Longitude":"120.531110","Latitude":"24.084720","direct":"南向","limit":"70"},{"CityName":"彰化縣","RegionName":"彰化市","Address":"中山、孔門路口","DeptNm":"彰化縣警察局","BranchNm":"彰化分局","Longitude":"120.544720","Latitude":"24.078610","direct":"北向","limit":"50"},{"CityName":"彰化縣","RegionName":"彰化市","Address":"建國北路","DeptNm":"彰化縣警察局","BranchNm":"彰化分局","Longitude":"120.550560","Latitude":"24.091940","direct":"西向","limit":"50"},{"CityName":"彰化縣","RegionName":"彰化市","Address":"中興路與介壽橋口","DeptNm":"彰化縣警察局","BranchNm":"彰化分局","Longitude":"120.552500","Latitude":"24.070280","direct":"西向","limit":"50"},{"CityName":"彰化縣","RegionName":"彰化市","Address":"中山、中正路口","DeptNm":"彰化縣警察局","BranchNm":"彰化分局","Longitude":"120.552500","Latitude":"24.083890","direct":"北向","limit":"50"},{"CityName":"彰化縣","RegionName":"彰化市","Address":"台74甲線與彰員路口","DeptNm":"彰化縣警察局","BranchNm":"彰化分局","Longitude":"120.555560","Latitude":"24.023330","direct":"南向","limit":"70"},{"CityName":"彰化縣","RegionName":"彰化市","Address":"金馬路一段、泰和路二段415巷口","DeptNm":"彰化縣警察局","BranchNm":"彰化分局","Longitude":"120.557220","Latitude":"24.098330","direct":"北向","limit":"70"},{"CityName":"彰化縣","RegionName":"彰化市","Address":"台1線186.8公里","DeptNm":"彰化縣警察局","BranchNm":"彰化分局","Longitude":"120.580280","Latitude":"24.101110","direct":"北向","limit":"70"},{"CityName":"彰化縣","RegionName":"彰化市","Address":"台14丙線、三竹路口","DeptNm":"彰化縣警察局","BranchNm":"彰化分局","Longitude":"120.583060","Latitude":"24.095000","direct":"西向","limit":"70"},{"CityName":"彰化縣","RegionName":"彰化市","Address":"台74甲線3.4公里","DeptNm":"彰化縣警察局","BranchNm":"彰化分局","Longitude":"120.593662","Latitude":"24.073111","direct":"南向","limit":"70"},{"CityName":"彰化縣","RegionName":"彰化市","Address":"台74甲線2.2公里","DeptNm":"彰化縣警察局","BranchNm":"彰化分局","Longitude":"120.594440","Latitude":"24.082220","direct":"東西雙向","limit":"70"},{"CityName":"彰化縣","RegionName":"彰化市","Address":"台14線、福興路口","DeptNm":"彰化縣警察局","BranchNm":"彰化分局","Longitude":"120.621940","Latitude":"24.045280","direct":"東向","limit":"70"},{"CityName":"彰化縣","RegionName":"鹿港鎮","Address":"台17線31.7公里","DeptNm":"彰化縣警察局","BranchNm":"鹿港分局","Longitude":"120.445830","Latitude":"24.086390","direct":"北向","limit":"70"},{"CityName":"彰化縣","RegionName":"鹿港鎮","Address":"台17線31.3公里(長安宮前)","DeptNm":"彰化縣警察局","BranchNm":"鹿港分局","Longitude":"120.448060","Latitude":"24.090830","direct":"南向","limit":"70"},{"CityName":"彰化縣","RegionName":"和美鎮","Address":"線東路五段291號南側170公尺處","DeptNm":"彰化縣警察局","BranchNm":"和美分局","Longitude":"120.489979","Latitude":"24.126819","direct":"北向","limit":"60"},{"CityName":"彰化縣","RegionName":"和美鎮","Address":"和美鎮和港路與西興路、北明路口","DeptNm":"彰化縣警察局","BranchNm":"和美分局","Longitude":"120.495883","Latitude":"24.114036","direct":"北向","limit":"60"},{"CityName":"彰化縣","RegionName":"和美鎮","Address":"彰美、中興路口","DeptNm":"彰化縣警察局","BranchNm":"和美分局","Longitude":"120.524170","Latitude":"24.099170","direct":"西向","limit":"60"},{"CityName":"彰化縣","RegionName":"福興鄉","Address":"沿海路、龍舟路路口","DeptNm":"彰化縣警察局","BranchNm":"鹿港分局","Longitude":"120.431013","Latitude":"24.048855","direct":"西向","limit":"50"},{"CityName":"彰化縣","RegionName":"福興鄉","Address":"福興鄉縣道144線與南環路口","DeptNm":"彰化縣警察局","BranchNm":"鹿港分局","Longitude":"120.444224","Latitude":"24.033230","direct":"東向","limit":"70"},{"CityName":"彰化縣","RegionName":"福興鄉","Address":"福興鄉彰鹿路6段與彰鹿路6段314巷路口","DeptNm":"彰化縣警察局","BranchNm":"鹿港分局","Longitude":"120.462977","Latitude":"24.046333","direct":"西向","limit":"60"},{"CityName":"彰化縣","RegionName":"福興鄉","Address":"台19線、番花路口","DeptNm":"彰化縣警察局","BranchNm":"鹿港分局","Longitude":"120.488610","Latitude":"24.016110","direct":"南向","limit":"60"},{"CityName":"彰化縣","RegionName":"秀水鄉","Address":"彰鹿路、民意街口","DeptNm":"彰化縣警察局","BranchNm":"鹿港分局","Longitude":"120.496674","Latitude":"24.050226","direct":"東向","limit":"60"},{"CityName":"彰化縣","RegionName":"秀水鄉","Address":"台19線、安鶴路口","DeptNm":"彰化縣警察局","BranchNm":"鹿港分局","Longitude":"120.511110","Latitude":"24.050560","direct":"北向","limit":"60"},{"CityName":"彰化縣","RegionName":"花壇鄉","Address":"台1線198.4公里","DeptNm":"彰化縣警察局","BranchNm":"彰化分局","Longitude":"120.538890","Latitude":"24.026940","direct":"","limit":""},{"CityName":"彰化縣","RegionName":"花壇鄉","Address":"中山路1段95號(福安宮前)","DeptNm":"彰化縣警察局","BranchNm":"彰化分局","Longitude":"120.543890","Latitude":"24.021670","direct":"北向","limit":"70"},{"CityName":"彰化縣","RegionName":"芬園鄉","Address":"芬園鄉大彰路與縣安路口","DeptNm":"彰化縣警察局","BranchNm":"彰化分局","Longitude":"120.626873","Latitude":"24.010653","direct":"東向","limit":"50"},{"CityName":"彰化縣","RegionName":"員林市","Address":"莒光路、員鹿路路口","DeptNm":"彰化縣警察局","BranchNm":"員林分局","Longitude":"120.566196","Latitude":"23.957156","direct":"南向","limit":"60"},{"CityName":"彰化縣","RegionName":"員林市","Address":"員林大道(30米外環道)、員集路口","DeptNm":"彰化縣警察局","BranchNm":"員林分局","Longitude":"120.575981","Latitude":"23.947822","direct":"西向","limit":"50"},{"CityName":"彰化縣","RegionName":"田中鎮","Address":"田中鎮斗中路與大社南路(彰95高鐵站連接道路)路口","DeptNm":"彰化縣警察局","BranchNm":"田中分局","Longitude":"120.576788","Latitude":"23.862650","direct":"西向","limit":"60"},{"CityName":"彰化縣","RegionName":"田中鎮","Address":"縣141線13.3公里南下","DeptNm":"彰化縣警察局","BranchNm":"田中分局","Longitude":"120.594440","Latitude":"23.845830","direct":"南向","limit":"60"},{"CityName":"彰化縣","RegionName":"田中鎮","Address":"員集路、東閔路路口","DeptNm":"彰化縣警察局","BranchNm":"田中分局","Longitude":"120.601130","Latitude":"23.839055","direct":"北向","limit":"60"},{"CityName":"彰化縣","RegionName":"大村鄉","Address":"台1線201.4公里","DeptNm":"彰化縣警察局","BranchNm":"員林分局","Longitude":"120.561940","Latitude":"23.944170","direct":"南北雙向","limit":"70"},{"CityName":"彰化縣","RegionName":"大村鄉","Address":"縣146線12.3公里中正東路東往西","DeptNm":"彰化縣警察局","BranchNm":"員林分局","Longitude":"120.563610","Latitude":"23.989170","direct":"西向","limit":"60"},{"CityName":"彰化縣","RegionName":"埔鹽鄉","Address":"埔鹽鄉彰水路二段與中山路口","DeptNm":"彰化縣警察局","BranchNm":"溪湖分局","Longitude":"120.476150","Latitude":"23.997436","direct":"北向","limit":"60"},{"CityName":"彰化縣","RegionName":"埔心鄉","Address":"埔心鄉員林大道(30米外環道)與員鹿路路口","DeptNm":"彰化縣警察局","BranchNm":"員林分局","Longitude":"120.562217","Latitude":"23.957081","direct":"南向","limit":"50"},{"CityName":"彰化縣","RegionName":"永靖鄉","Address":"永靖鄉中山路1段與中山路1段 351巷路口","DeptNm":"彰化縣警察局","BranchNm":"北斗分局","Longitude":"120.546314","Latitude":"23.922073","direct":"南向","limit":"70"},{"CityName":"彰化縣","RegionName":"社頭鄉","Address":"縣141線6.6公里北上","DeptNm":"彰化縣警察局","BranchNm":"田中分局","Longitude":"120.585000","Latitude":"23.862780","direct":"北向","limit":"60"},{"CityName":"彰化縣","RegionName":"二水鄉","Address":"縣152線與二水鄉外環道(外環道路口)","DeptNm":"彰化縣警察局","BranchNm":"田中分局","Longitude":"120.619720","Latitude":"23.806110","direct":"南向","limit":"50"},{"CityName":"彰化縣","RegionName":"二水鄉","Address":"二水鄉縣141線21.594公里(二水鄉南通路二段398號對面)","DeptNm":"彰化縣警察局","BranchNm":"田中分局","Longitude":"120.628014","Latitude":"23.801483","direct":"南向","limit":"50"},{"CityName":"彰化縣","RegionName":"二水鄉","Address":"縣152線與二水鄉外環道(往名間方向)","DeptNm":"彰化縣警察局","BranchNm":"田中分局","Longitude":"120.674440","Latitude":"23.816940","direct":"南向","limit":"50"},{"CityName":"彰化縣","RegionName":"北斗鎮","Address":"斗苑路、斗苑二路307巷口","DeptNm":"彰化縣警察局","BranchNm":"北斗分局","Longitude":"120.510235","Latitude":"23.878146","direct":"東向","limit":"60"},{"CityName":"彰化縣","RegionName":"北斗鎮","Address":"北斗鎮中山路與斗苑路口","DeptNm":"彰化縣警察局","BranchNm":"北斗分局","Longitude":"120.517192","Latitude":"23.873513","direct":"南向","limit":"50"},{"CityName":"彰化縣","RegionName":"田尾鄉","Address":"台1線214.6公里南下","DeptNm":"彰化縣警察局","BranchNm":"北斗分局","Longitude":"120.506390","Latitude":"23.861670","direct":"南向","limit":"50"},{"CityName":"彰化縣","RegionName":"田尾鄉","Address":"台1線214公里北上","DeptNm":"彰化縣警察局","BranchNm":"北斗分局","Longitude":"120.507220","Latitude":"23.862500","direct":"北向","limit":"70"},{"CityName":"彰化縣","RegionName":"埤頭鄉","Address":"彰水路、庄子路口","DeptNm":"彰化縣警察局","BranchNm":"北斗分局","Longitude":"120.460796","Latitude":"23.894117","direct":"北向","limit":"70"},{"CityName":"彰化縣","RegionName":"埤頭鄉","Address":"台19線25.3公里北上東外環","DeptNm":"彰化縣警察局","BranchNm":"北斗分局","Longitude":"120.469720","Latitude":"23.898610","direct":"北向","limit":"70"},{"CityName":"彰化縣","RegionName":"埤頭鄉","Address":"埤頭鄉東環路與庄子路282巷路口","DeptNm":"彰化縣警察局","BranchNm":"田中分局","Longitude":"120.476714","Latitude":"23.896596","direct":"南向","limit":"70"},{"CityName":"彰化縣","RegionName":"芳苑鄉","Address":"台17線與新上路口","DeptNm":"彰化縣警察局","BranchNm":"芳苑分局","Longitude":"120.307500","Latitude":"23.903330","direct":"南向","limit":"70"},{"CityName":"彰化縣","RegionName":"芳苑鄉","Address":"台17線59.3公里(芳苑鄉芳新路芳苑段801號)","DeptNm":"彰化縣警察局","BranchNm":"芳苑分局","Longitude":"120.323610","Latitude":"23.934170","direct":"南北雙向","limit":"70"},{"CityName":"彰化縣","RegionName":"芳苑鄉","Address":"台17線53.7公里","DeptNm":"彰化縣警察局","BranchNm":"芳苑分局","Longitude":"120.334720","Latitude":"23.952220","direct":"南北雙向","limit":"70"},{"CityName":"彰化縣","RegionName":"芳苑鄉","Address":"台17線、功湖路口","DeptNm":"彰化縣警察局","BranchNm":"芳苑分局","Longitude":"120.346670","Latitude":"23.964170","direct":"北向","limit":"70"},{"CityName":"彰化縣","RegionName":"芳苑鄉","Address":"台17線、中正路口","DeptNm":"彰化縣警察局","BranchNm":"芳苑分局","Longitude":"120.352220","Latitude":"23.975000","direct":"北向","limit":"70"},{"CityName":"彰化縣","RegionName":"竹塘鄉","Address":"竹塘鄉中央路二段大湖路口","DeptNm":"彰化縣警察局","BranchNm":"北斗分局","Longitude":"120.426277","Latitude":"23.862357","direct":"南向","limit":"70"},{"CityName":"彰化縣","RegionName":"溪州鄉","Address":"台1線219.7公里(溪洲外環道)","DeptNm":"彰化縣警察局","BranchNm":"北斗分局","Longitude":"120.470280","Latitude":"23.834440","direct":"北向","limit":"70"},{"CityName":"彰化縣","RegionName":"溪州鄉","Address":"台1線218.4公里處(溪州鄉中山路4段287號)","DeptNm":"彰化縣警察局","BranchNm":"北斗分局","Longitude":"120.483112","Latitude":"23.848319","direct":"南北雙向","limit":"70"},{"CityName":"南投縣","RegionName":"南投市","Address":"華陽路850號前","DeptNm":"南投縣政府警察局","BranchNm":"南投分局","Longitude":"120.678246","Latitude":"23.930109","direct":"南北雙向","limit":"60"},{"CityName":"南投縣","RegionName":"南投市","Address":"東閔路1.35公里","DeptNm":"南投縣政府警察局","BranchNm":"中興分局","Longitude":"120.686228","Latitude":"23.936150","direct":"北向南","limit":"60"},{"CityName":"南投縣","RegionName":"南投市","Address":"台3線215.5公里","DeptNm":"南投縣政府警察局","BranchNm":"南投分局","Longitude":"120.689876","Latitude":"23.888296","direct":"南北雙向","limit":"60"},{"CityName":"南投縣","RegionName":"埔里鎮","Address":"台21線50.8公里","DeptNm":"南投縣政府警察局","BranchNm":"埔里分局","Longitude":"120.931840","Latitude":"23.944330","direct":"北向南","limit":"60"},{"CityName":"南投縣","RegionName":"埔里鎮","Address":"台21線49.9公里","DeptNm":"南投縣政府警察局","BranchNm":"埔里分局","Longitude":"120.937636","Latitude":"23.948852","direct":"南向北","limit":"60"},{"CityName":"南投縣","RegionName":"草屯鎮","Address":"台14乙線5.9公里","DeptNm":"南投縣政府警察局","BranchNm":"草屯分局","Longitude":"120.655079","Latitude":"23.963616","direct":"南北雙向","limit":"70"},{"CityName":"南投縣","RegionName":"草屯鎮","Address":"台63甲線0.3公里闖紅燈","DeptNm":"南投縣政府警察局","BranchNm":"草屯分局","Longitude":"120.677848","Latitude":"24.002890","direct":"南向北","limit":"60"},{"CityName":"南投縣","RegionName":"草屯鎮","Address":"台63甲線1.2公里","DeptNm":"南投縣政府警察局","BranchNm":"草屯分局","Longitude":"120.679626","Latitude":"23.996204","direct":"南北雙向","limit":"60"},{"CityName":"南投縣","RegionName":"草屯鎮","Address":"台14線富功國小前","DeptNm":"南投縣政府警察局","BranchNm":"草屯分局","Longitude":"120.698436","Latitude":"23.978879","direct":"東向西","limit":"50"},{"CityName":"南投縣","RegionName":"草屯鎮","Address":"東草屯交流道永安路1.8公里","DeptNm":"南投縣政府警察局","BranchNm":"草屯分局","Longitude":"120.722468","Latitude":"23.996404","direct":"南北雙向","limit":"50"},{"CityName":"南投縣","RegionName":"竹山鎮","Address":"大明路與前山路口闖紅燈","DeptNm":"南投縣政府警察局","BranchNm":"竹山分局","Longitude":"120.679295","Latitude":"23.757366","direct":"南向北","limit":"60"},{"CityName":"南投縣","RegionName":"竹山鎮","Address":"社寮產業運輸道路2.15公里處","DeptNm":"南投縣政府警察局","BranchNm":"竹山分局","Longitude":"120.705372","Latitude":"23.808374","direct":"南北雙向","limit":"40"},{"CityName":"南投縣","RegionName":"竹山鎮","Address":"台3線227.7公里","DeptNm":"南投縣政府警察局","BranchNm":"竹山分局","Longitude":"120.709379","Latitude":"23.789067","direct":"南北雙向","limit":"60"},{"CityName":"南投縣","RegionName":"竹山鎮","Address":"社寮產業運輸道路4.5公里處","DeptNm":"南投縣政府警察局","BranchNm":"竹山分局","Longitude":"120.721655","Latitude":"23.823490","direct":"南北雙向","limit":"40"},{"CityName":"南投縣","RegionName":"集集鎮","Address":"台16線2.37公里","DeptNm":"南投縣政府警察局","BranchNm":"集集分局","Longitude":"120.730961","Latitude":"23.834897","direct":"東西雙向","limit":"70"},{"CityName":"南投縣","RegionName":"集集鎮","Address":"台16線4.8公里闖紅燈及測速","DeptNm":"南投縣政府警察局","BranchNm":"集集分局","Longitude":"120.752475","Latitude":"23.828298","direct":"東向西","limit":"70"},{"CityName":"雲林縣","RegionName":"斗六市","Address":"台1丁線公路與久安路口","DeptNm":"雲林縣警察局","BranchNm":"斗六分局","Longitude":"120.508235","Latitude":"23.691449","direct":"東西雙向","limit":"70"},{"CityName":"雲林縣","RegionName":"斗六市","Address":"大學路與雲林科技大學前路口","DeptNm":"雲林縣警察局","BranchNm":"斗六分局","Longitude":"120.533080","Latitude":"23.695943","direct":"西向東","limit":"60"},{"CityName":"雲林縣","RegionName":"斗六市","Address":"台3線公路252k+65m處","DeptNm":"雲林縣警察局","BranchNm":"斗六分局","Longitude":"120.546494","Latitude":"23.699762","direct":"南向北","limit":"60"},{"CityName":"雲林縣","RegionName":"斗六市","Address":"154乙縣道13k+200m處(環科大前)","DeptNm":"雲林縣警察局","BranchNm":"斗六分局","Longitude":"120.552562","Latitude":"23.680203","direct":"南向北","limit":"60"},{"CityName":"雲林縣","RegionName":"斗六市","Address":"斗六市台3線公路與成功路口","DeptNm":"雲林縣警察局","BranchNm":"斗六分局","Longitude":"120.553460","Latitude":"23.702804","direct":"南向北","limit":"70"},{"CityName":"雲林縣","RegionName":"斗六市","Address":"台3線公路248k+970m處","DeptNm":"雲林縣警察局","BranchNm":"斗六分局","Longitude":"120.597945","Latitude":"23.736148","direct":"南向北","limit":"60"},{"CityName":"雲林縣","RegionName":"斗南鎮","Address":"台78線快速公路29k+400m處(西向東)","DeptNm":"雲林縣警察局","BranchNm":"斗南分局","Longitude":"120.451889","Latitude":"23.673025","direct":"西向東","limit":"100"},{"CityName":"雲林縣","RegionName":"斗南鎮","Address":"台78線快速公路29k+400m處(東向西)","DeptNm":"雲林縣警察局","BranchNm":"斗南分局","Longitude":"120.451929","Latitude":"23.673211","direct":"東向西","limit":"100"},{"CityName":"雲林縣","RegionName":"斗南鎮","Address":"台1線公路與文昌路口(南向北)","DeptNm":"雲林縣警察局","BranchNm":"斗南分局","Longitude":"120.480838","Latitude":"23.679547","direct":"南向北","limit":"60"},{"CityName":"雲林縣","RegionName":"斗南鎮","Address":"台1線公路與文昌路口(北向南)","DeptNm":"雲林縣警察局","BranchNm":"斗南分局","Longitude":"120.480858","Latitude":"23.680340","direct":"北向南","limit":"60"},{"CityName":"雲林縣","RegionName":"斗南鎮","Address":"台1丁線公路12k+800m處(新光陸橋)","DeptNm":"雲林縣警察局","BranchNm":"斗南分局","Longitude":"120.492336","Latitude":"23.683597","direct":"西向東","limit":"60"},{"CityName":"雲林縣","RegionName":"虎尾鎮","Address":"158縣道與博愛路口","DeptNm":"雲林縣警察局","BranchNm":"虎尾分局","Longitude":"120.436048","Latitude":"23.719143","direct":"西向東","limit":"60"},{"CityName":"雲林縣","RegionName":"虎尾鎮","Address":"158縣道與林森路一段路口","DeptNm":"雲林縣警察局","BranchNm":"虎尾分局","Longitude":"120.441329","Latitude":"23.717179","direct":"東向西","limit":"60"},{"CityName":"雲林縣","RegionName":"虎尾鎮","Address":"145乙縣道與雲71線路口前(東向西)","DeptNm":"雲林縣警察局","BranchNm":"虎尾分局","Longitude":"120.458277","Latitude":"23.735708","direct":"東向西","limit":"60"},{"CityName":"雲林縣","RegionName":"虎尾鎮","Address":"台1線公路與雲74線路口(惠來派出所前)","DeptNm":"雲林縣警察局","BranchNm":"虎尾分局","Longitude":"120.488912","Latitude":"23.728313","direct":"南北雙向","limit":"70"},{"CityName":"雲林縣","RegionName":"西螺鎮","Address":"154甲縣道1k處(高鐵橋下)","DeptNm":"雲林縣警察局","BranchNm":"西螺分局","Longitude":"120.430581","Latitude":"23.788077","direct":"東向西","limit":"60"},{"CityName":"雲林縣","RegionName":"西螺鎮","Address":"145縣道與福來路20巷路口(12.6k處-北向)","DeptNm":"雲林縣警察局","BranchNm":"西螺分局","Longitude":"120.445057","Latitude":"23.778845","direct":"南向北","limit":"60"},{"CityName":"雲林縣","RegionName":"西螺鎮","Address":"台1線公路與振興路口(北向南)","DeptNm":"雲林縣警察局","BranchNm":"西螺分局","Longitude":"120.470463","Latitude":"23.790655","direct":"北向南","limit":"50"},{"CityName":"雲林縣","RegionName":"西螺鎮","Address":"台1線公路與振興路口(南向北)","DeptNm":"雲林縣警察局","BranchNm":"西螺分局","Longitude":"120.470754","Latitude":"23.790069","direct":"南向北","limit":"50"},{"CityName":"雲林縣","RegionName":"土庫鎮","Address":"158縣道18k處","DeptNm":"雲林縣警察局","BranchNm":"虎尾分局","Longitude":"120.353135","Latitude":"23.701317","direct":"東向西","limit":"70"},{"CityName":"雲林縣","RegionName":"土庫鎮","Address":"145縣道29k處(土庫外環道)","DeptNm":"雲林縣警察局","BranchNm":"虎尾分局","Longitude":"120.388552","Latitude":"23.670492","direct":"北向南","limit":"60"},{"CityName":"雲林縣","RegionName":"北港鎮","Address":"164縣道14k+800m處(扶朝段)","DeptNm":"雲林縣警察局","BranchNm":"北港分局","Longitude":"120.283415","Latitude":"23.567299","direct":"東向西","limit":"60"},{"CityName":"雲林縣","RegionName":"北港鎮","Address":"台19線公路與145線道路口","DeptNm":"雲林縣警察局","BranchNm":"北港分局","Longitude":"120.299399","Latitude":"23.583764","direct":"北向南","limit":"60"},{"CityName":"雲林縣","RegionName":"大埤鄉","Address":"台1線公路247k+500m處(豐田段)","DeptNm":"雲林縣警察局","BranchNm":"斗南分局","Longitude":"120.468266","Latitude":"23.633721","direct":"南向北","limit":"70"},{"CityName":"雲林縣","RegionName":"大埤鄉","Address":"台1線公路246k+400m處(豐田段)","DeptNm":"雲林縣警察局","BranchNm":"斗南分局","Longitude":"120.469456","Latitude":"23.639185","direct":"北向南","limit":"70"},{"CityName":"雲林縣","RegionName":"莿桐鄉","Address":"台1線公路235k+592m處","DeptNm":"雲林縣警察局","BranchNm":"斗六分局","Longitude":"120.494443","Latitude":"23.742592","direct":"南向北","limit":"60"},{"CityName":"雲林縣","RegionName":"莿桐鄉","Address":"台1線公路與中正路口","DeptNm":"雲林縣警察局","BranchNm":"斗六分局","Longitude":"120.496770","Latitude":"23.757749","direct":"北向南","limit":"70"},{"CityName":"雲林縣","RegionName":"莿桐鄉","Address":"156縣道與莿桐外環道(孩沙里)路口","DeptNm":"雲林縣警察局","BranchNm":"斗六分局","Longitude":"120.506427","Latitude":"23.766708","direct":"北向南","limit":"60"},{"CityName":"雲林縣","RegionName":"莿桐鄉","Address":"台1丁線公路與農校路口","DeptNm":"雲林縣警察局","BranchNm":"斗六分局","Longitude":"120.508674","Latitude":"23.750402","direct":"北向南","limit":"60"},{"CityName":"雲林縣","RegionName":"林內鄉","Address":"台3線公路238k+268m處","DeptNm":"雲林縣警察局","BranchNm":"斗六分局","Longitude":"120.611653","Latitude":"23.760244","direct":"南向北","limit":"60"},{"CityName":"雲林縣","RegionName":"麥寮鄉","Address":"雲3線海豐村忠和路131號前","DeptNm":"雲林縣警察局","BranchNm":"臺西分局","Longitude":"120.225595","Latitude":"23.766041","direct":"南向北","limit":"60"},{"CityName":"雲林縣","RegionName":"麥寮鄉","Address":"工業路與雲3號路口(西向東)","DeptNm":"雲林縣警察局","BranchNm":"臺西分局","Longitude":"120.234594","Latitude":"23.792047","direct":"西向東","limit":"60"},{"CityName":"雲林縣","RegionName":"麥寮鄉","Address":"工業路與4k+500m處路口","DeptNm":"雲林縣警察局","BranchNm":"臺西分局","Longitude":"120.236775","Latitude":"23.791571","direct":"西向東","limit":"70"},{"CityName":"雲林縣","RegionName":"麥寮鄉","Address":"工業路與雲3號路口(東向西)","DeptNm":"雲林縣警察局","BranchNm":"臺西分局","Longitude":"120.239156","Latitude":"23.791637","direct":"東向西","limit":"60"},{"CityName":"雲林縣","RegionName":"麥寮鄉","Address":"台17線公路與工業路口","DeptNm":"雲林縣警察局","BranchNm":"臺西分局","Longitude":"120.278653","Latitude":"23.796310","direct":"南向北","limit":"60"},{"CityName":"雲林縣","RegionName":"麥寮鄉","Address":"台17線公路與154縣道路口(橋頭)","DeptNm":"雲林縣警察局","BranchNm":"臺西分局","Longitude":"120.278654","Latitude":"23.796334","direct":"北向南","limit":"60"},{"CityName":"雲林縣","RegionName":"東勢鄉","Address":"台78線快速公路13k處(西向東)","DeptNm":"雲林縣警察局","BranchNm":"臺西分局","Longitude":"120.207337","Latitude":"23.685221","direct":"西向東","limit":"100"},{"CityName":"雲林縣","RegionName":"東勢鄉","Address":"113縣道湖東橋前路段","DeptNm":"雲林縣警察局","BranchNm":"臺西分局","Longitude":"120.240268","Latitude":"23.655547","direct":"東向西","limit":"60"},{"CityName":"雲林縣","RegionName":"東勢鄉","Address":"新坤路與158甲縣道路口","DeptNm":"雲林縣警察局","BranchNm":"臺西分局","Longitude":"120.253293","Latitude":"23.721405","direct":"北向南","limit":"60"},{"CityName":"雲林縣","RegionName":"東勢鄉","Address":"153縣道1k處","DeptNm":"雲林縣警察局","BranchNm":"臺西分局","Longitude":"120.255278","Latitude":"23.738637","direct":"北向南","limit":"60"},{"CityName":"雲林縣","RegionName":"東勢鄉","Address":"153線與158甲線縣道路口","DeptNm":"雲林縣警察局","BranchNm":"臺西分局","Longitude":"120.256620","Latitude":"23.720883","direct":"南向北","limit":"60"},{"CityName":"雲林縣","RegionName":"東勢鄉","Address":"153縣道嘉勝路與守密街路口(南向)","DeptNm":"雲林縣警察局","BranchNm":"臺西分局","Longitude":"120.259013","Latitude":"23.665485","direct":"北向南","limit":"50"},{"CityName":"雲林縣","RegionName":"東勢鄉","Address":"台78線快速公路13k處(東向西)","DeptNm":"雲林縣警察局","BranchNm":"臺西分局","Longitude":"120.306909","Latitude":"23.685089","direct":"東向西","limit":"100"},{"CityName":"雲林縣","RegionName":"褒忠鄉","Address":"台19線公路與158縣道路口","DeptNm":"雲林縣警察局","BranchNm":"虎尾分局","Longitude":"120.324073","Latitude":"23.698270","direct":"北向南","limit":"70"},{"CityName":"雲林縣","RegionName":"褒忠鄉","Address":"台19線公路53k+500m處","DeptNm":"雲林縣警察局","BranchNm":"虎尾分局","Longitude":"120.324422","Latitude":"23.708207","direct":"南向北","limit":"70"},{"CityName":"雲林縣","RegionName":"臺西鄉","Address":"155縣道民權路47-8號前","DeptNm":"雲林縣警察局","BranchNm":"臺西分局","Longitude":"120.200159","Latitude":"23.703784","direct":"北向南","limit":"50"},{"CityName":"雲林縣","RegionName":"臺西鄉","Address":"155縣道4k+800m處","DeptNm":"雲林縣警察局","BranchNm":"臺西分局","Longitude":"120.208820","Latitude":"23.669996","direct":"北向南","limit":"60"},{"CityName":"雲林縣","RegionName":"元長鄉","Address":"160縣道20k+947m處(子茂段)","DeptNm":"雲林縣警察局","BranchNm":"虎尾分局","Longitude":"120.335692","Latitude":"23.658913","direct":"東向西","limit":"60"},{"CityName":"雲林縣","RegionName":"四湖鄉","Address":"155線四湖國中前","DeptNm":"雲林縣警察局","BranchNm":"臺西分局","Longitude":"120.227541","Latitude":"23.630302","direct":"北向南","limit":"60"},{"CityName":"雲林縣","RegionName":"口湖鄉","Address":"台17線公路97k+842m處","DeptNm":"雲林縣警察局","BranchNm":"北港分局","Longitude":"120.166895","Latitude":"23.623926","direct":"北向南","limit":"70"},{"CityName":"嘉義縣","RegionName":"太保市","Address":"台18線1.5K(後庄段)","DeptNm":"嘉義縣警察局","BranchNm":"水上分局","Longitude":"120.328725","Latitude":"23.472518","direct":"由東向西","limit":"70"},{"CityName":"嘉義縣","RegionName":"民雄鄉","Address":"台1線255.5K(鎮北段)","DeptNm":"嘉義縣警察局","BranchNm":"民雄分局","Longitude":"120.439569","Latitude":"23.578737","direct":"由南向北","limit":"70"},{"CityName":"嘉義縣","RegionName":"新港鄉","Address":"159線南壇段水月橋","DeptNm":"嘉義縣警察局","BranchNm":"民雄分局","Longitude":"120.324978","Latitude":"23.560233","direct":"由東向西","limit":"60"},{"CityName":"嘉義縣","RegionName":"六腳鄉","Address":"台19線73.1K(六美國小)","DeptNm":"嘉義縣警察局","BranchNm":"朴子分局","Longitude":"120.292695","Latitude":"23.539839","direct":"由南向北","limit":"50"},{"CityName":"嘉義縣","RegionName":"東石鄉","Address":"台82線4.65K","DeptNm":"嘉義縣警察局","BranchNm":"朴子分局","Longitude":"120.190986","Latitude":"23.456659","direct":"由東向西","limit":"70"},{"CityName":"嘉義縣","RegionName":"梅山鄉","Address":"台3線272.2K(大南國小)","DeptNm":"嘉義縣警察局","BranchNm":"竹崎分局","Longitude":"120.553921","Latitude":"23.558527","direct":"由北向南","limit":"60"},{"CityName":"屏東縣","RegionName":"屏東市","Address":"高屏大橋屏東端南北雙向","DeptNm":"屏東縣政府警察局","BranchNm":"屏東分局","Longitude":"120.439440","Latitude":"22.647780","direct":"","limit":""},{"CityName":"屏東縣","RegionName":"屏東市","Address":"環河路段南北雙向","DeptNm":"屏東縣政府警察局","BranchNm":"屏東分局","Longitude":"120.450153","Latitude":"22.650532","direct":"","limit":""},{"CityName":"屏東縣","RegionName":"屏東市","Address":"建國路清進巷口南下","DeptNm":"屏東縣政府警察局","BranchNm":"屏東分局","Longitude":"120.461670","Latitude":"22.654170","direct":"","limit":""},{"CityName":"屏東縣","RegionName":"屏東市","Address":"建國路與和生路路口北上","DeptNm":"屏東縣政府警察局","BranchNm":"屏東分局","Longitude":"120.466670","Latitude":"22.656110","direct":"","limit":""},{"CityName":"屏東縣","RegionName":"屏東市","Address":"中山路與自由路路口南下","DeptNm":"屏東縣政府警察局","BranchNm":"屏東分局","Longitude":"120.484440","Latitude":"22.684170","direct":"","limit":""},{"CityName":"屏東縣","RegionName":"屏東市","Address":"台27線61.7K公館外環道南北雙向","DeptNm":"屏東縣政府警察局","BranchNm":"屏東分局","Longitude":"120.485280","Latitude":"22.635280","direct":"","limit":""},{"CityName":"屏東縣","RegionName":"屏東市","Address":"台27線59.7K復興南路與公成路口北上","DeptNm":"屏東縣政府警察局","BranchNm":"屏東分局","Longitude":"120.485560","Latitude":"22.640830","direct":"","limit":""},{"CityName":"屏東縣","RegionName":"屏東市","Address":"台3線429.5K九如機場西側外環道南下","DeptNm":"屏東縣政府警察局","BranchNm":"里港分局","Longitude":"120.488060","Latitude":"22.710280","direct":"","limit":""},{"CityName":"屏東縣","RegionName":"屏東市","Address":"台3線432.7K屏東監理站前南下","DeptNm":"屏東縣政府警察局","BranchNm":"屏東分局","Longitude":"120.489170","Latitude":"22.693060","direct":"","limit":""},{"CityName":"屏東縣","RegionName":"屏東市","Address":"台3線430.9K海豐果菜市場附近南北雙向","DeptNm":"屏東縣政府警察局","BranchNm":"屏東分局","Longitude":"120.490560","Latitude":"22.705830","direct":"","limit":""},{"CityName":"屏東縣","RegionName":"屏東市","Address":"189線1.3K大溪路口南下","DeptNm":"屏東縣政府警察局","BranchNm":"屏東分局","Longitude":"120.494440","Latitude":"22.585560","direct":"","limit":""},{"CityName":"屏東縣","RegionName":"屏東市","Address":"民生東路與和生路","DeptNm":"屏東縣政府警察局","BranchNm":"屏東分局","Longitude":"120.511390","Latitude":"22.659720","direct":"","limit":""},{"CityName":"屏東縣","RegionName":"屏東市","Address":"民生路與和生路路口南下","DeptNm":"屏東縣政府警察局","BranchNm":"屏東分局","Longitude":"120.511390","Latitude":"22.659720","direct":"","limit":""},{"CityName":"屏東縣","RegionName":"屏東市","Address":"台27線65.5K丹榮路段南北雙向","DeptNm":"屏東縣政府警察局","BranchNm":"屏東分局","Longitude":"120.533656","Latitude":"22.713223","direct":"","limit":""},{"CityName":"屏東縣","RegionName":"屏東市","Address":"屏21線神農西路段","DeptNm":"屏東縣政府警察局","BranchNm":"屏東分局","Longitude":"120.533774","Latitude":"22.713886","direct":"","limit":""},{"CityName":"屏東縣","RegionName":"屏東市","Address":"屏26線神農德華路口東西雙向","DeptNm":"屏東縣政府警察局","BranchNm":"屏東分局","Longitude":"120.542220","Latitude":"22.717780","direct":"","limit":""},{"CityName":"屏東縣","RegionName":"潮州鎮","Address":"台1線三林路口","DeptNm":"屏東縣政府警察局","BranchNm":"潮州分局","Longitude":"22.550808","Latitude":"120.555654","direct":"","limit":""},{"CityName":"屏東縣","RegionName":"潮州鎮","Address":"台3線418.9K里港土庫段南北雙向","DeptNm":"屏東縣政府警察局","BranchNm":"潮州分局","Longitude":"120.481288","Latitude":"23.683811","direct":"","limit":""},{"CityName":"屏東縣","RegionName":"潮州鎮","Address":"189線11.3K大湖橋北上","DeptNm":"屏東縣政府警察局","BranchNm":"潮州分局","Longitude":"120.511940","Latitude":"22.578610","direct":"","limit":""},{"CityName":"屏東縣","RegionName":"潮州鎮","Address":"台88線20.6K快速道路北上","DeptNm":"屏東縣政府警察局","BranchNm":"潮州分局","Longitude":"120.520560","Latitude":"22.569440","direct":"","limit":""},{"CityName":"屏東縣","RegionName":"潮州鎮","Address":"台88線20.6K快速道路南下","DeptNm":"屏東縣政府警察局","BranchNm":"潮州分局","Longitude":"120.521670","Latitude":"22.570560","direct":"","limit":""},{"CityName":"屏東縣","RegionName":"潮州鎮","Address":"台一線420.1K潮州武丁路口南下","DeptNm":"屏東縣政府警察局","BranchNm":"潮州分局","Longitude":"120.530830","Latitude":"22.517220","direct":"","limit":""},{"CityName":"屏東縣","RegionName":"潮州鎮","Address":"屏85線與屏83線路口南下","DeptNm":"屏東縣政府警察局","BranchNm":"潮州分局","Longitude":"120.534440","Latitude":"22.577780","direct":"","limit":""},{"CityName":"屏東縣","RegionName":"潮州鎮","Address":"台一線417K潮州段南北雙向","DeptNm":"屏東縣政府警察局","BranchNm":"潮州分局","Longitude":"120.540000","Latitude":"22.536940","direct":"","limit":""},{"CityName":"屏東縣","RegionName":"潮州鎮","Address":"台一線413.4K潮州四維路口北上","DeptNm":"屏東縣政府警察局","BranchNm":"潮州分局","Longitude":"120.553330","Latitude":"22.562500","direct":"","limit":""},{"CityName":"屏東縣","RegionName":"潮州鎮","Address":"台一線409.6K竹田段南下","DeptNm":"屏東縣政府警察局","BranchNm":"潮州分局","Longitude":"120.553330","Latitude":"22.588610","direct":"","limit":""},{"CityName":"屏東縣","RegionName":"潮州鎮","Address":"台一線414.7K潮州三林路口南下","DeptNm":"屏東縣政府警察局","BranchNm":"潮州分局","Longitude":"120.555830","Latitude":"22.551670","direct":"","limit":""},{"CityName":"屏東縣","RegionName":"東港鎮","Address":"大鵬灣環灣道路3K南北雙向處","DeptNm":"屏東縣政府警察局","BranchNm":"東港分局","Longitude":"22.439495","Latitude":"120.471446","direct":"","limit":""},{"CityName":"屏東縣","RegionName":"東港鎮","Address":"大鵬灣環灣道路12K處南北雙向","DeptNm":"屏東縣政府警察局","BranchNm":"東港分局","Longitude":"22.439495","Latitude":"120.471446","direct":"","limit":""},{"CityName":"屏東縣","RegionName":"東港鎮","Address":"187乙線南州鄉勝利路段","DeptNm":"屏東縣政府警察局","BranchNm":"東港分局","Longitude":"22.492243","Latitude":"120.538934","direct":"","limit":""},{"CityName":"屏東縣","RegionName":"東港鎮","Address":"台27線74.4K興安段南北雙向","DeptNm":"屏東縣政府警察局","BranchNm":"東港分局","Longitude":"22.666328","Latitude":"120.481920","direct":"","limit":""},{"CityName":"屏東縣","RegionName":"東港鎮","Address":"台17線253.5K與學仁路口北上","DeptNm":"屏東縣政府警察局","BranchNm":"東港分局","Longitude":"120.456940","Latitude":"22.480830","direct":"","limit":""},{"CityName":"屏東縣","RegionName":"東港鎮","Address":"台27線79.5K與台17線交叉口南下","DeptNm":"屏東縣政府警察局","BranchNm":"東港分局","Longitude":"120.459170","Latitude":"22.491670","direct":"","limit":""},{"CityName":"屏東縣","RegionName":"東港鎮","Address":"台27線71.1K仙公廟南北雙向","DeptNm":"屏東縣政府警察局","BranchNm":"東港分局","Longitude":"120.460280","Latitude":"22.544170","direct":"","limit":""},{"CityName":"屏東縣","RegionName":"東港鎮","Address":"台27線76K港西路口南下","DeptNm":"屏東縣政府警察局","BranchNm":"東港分局","Longitude":"120.462220","Latitude":"22.511670","direct":"","limit":""},{"CityName":"屏東縣","RegionName":"東港鎮","Address":"台17線256.7K東港船頭路口南下","DeptNm":"屏東縣政府警察局","BranchNm":"東港分局","Longitude":"120.466110","Latitude":"22.461940","direct":"","limit":""},{"CityName":"屏東縣","RegionName":"東港鎮","Address":"187線35.5K與187乙線路口南下","DeptNm":"屏東縣政府警察局","BranchNm":"東港分局","Longitude":"120.472500","Latitude":"22.486390","direct":"","limit":""},{"CityName":"屏東縣","RegionName":"東港鎮","Address":"台17線258.5K東港大鵬灣段南北雙向","DeptNm":"屏東縣政府警察局","BranchNm":"東港分局","Longitude":"120.479720","Latitude":"22.457500","direct":"","limit":""},{"CityName":"屏東縣","RegionName":"東港鎮","Address":"屏58線7.1K與崁頂南二高平面道路路口南下","DeptNm":"屏東縣政府警察局","BranchNm":"東港分局","Longitude":"120.530830","Latitude":"22.542500","direct":"","limit":""},{"CityName":"屏東縣","RegionName":"東港鎮","Address":"屏58線7.1K與崁頂南二高平面道路路口北上","DeptNm":"屏東縣政府警察局","BranchNm":"東港分局","Longitude":"120.531670","Latitude":"22.542500","direct":"","limit":""},{"CityName":"屏東縣","RegionName":"東港鎮","Address":"台一線422.8K南州台糖加油站前南下","DeptNm":"屏東縣政府警察局","BranchNm":"東港分局","Longitude":"120.538330","Latitude":"22.492780","direct":"","limit":""},{"CityName":"屏東縣","RegionName":"恆春鎮","Address":"台26線7.8K竹坑村路口北上","DeptNm":"屏東縣政府警察局","BranchNm":"恆春分局","Longitude":"120.701670","Latitude":"22.140830","direct":"","limit":""},{"CityName":"屏東縣","RegionName":"恆春鎮","Address":"台26線16.4K車城分駐所前南下","DeptNm":"屏東縣政府警察局","BranchNm":"恆春分局","Longitude":"120.714170","Latitude":"22.073330","direct":"","limit":""},{"CityName":"屏東縣","RegionName":"恆春鎮","Address":"台27線74.4K興安段南北雙向","DeptNm":"屏東縣政府警察局","BranchNm":"恆春分局","Longitude":"120.737858","Latitude":"22.037137","direct":"","limit":""},{"CityName":"屏東縣","RegionName":"恆春鎮","Address":"台26線20K處南北雙向","DeptNm":"屏東縣政府警察局","BranchNm":"恆春分局","Longitude":"120.740000","Latitude":"22.001110","direct":"","limit":""},{"CityName":"屏東縣","RegionName":"恆春鎮","Address":"台26線22.9K南北雙向","DeptNm":"屏東縣政府警察局","BranchNm":"恆春分局","Longitude":"120.743069","Latitude":"22.024392","direct":"","limit":""},{"CityName":"屏東縣","RegionName":"恆春鎮","Address":"台26線28.8K核三廠前南下","DeptNm":"屏東縣政府警察局","BranchNm":"恆春分局","Longitude":"120.756390","Latitude":"21.968610","direct":"","limit":""},{"CityName":"屏東縣","RegionName":"恆春鎮","Address":"台26線29.5K潭子灣路段南下","DeptNm":"屏東縣政府警察局","BranchNm":"恆春分局","Longitude":"120.778330","Latitude":"21.950560","direct":"","limit":""},{"CityName":"屏東縣","RegionName":"萬丹鄉","Address":"萬丹鄉西環路與和平西路口","DeptNm":"屏東縣政府警察局","BranchNm":"屏東分局","Longitude":"22.589386","Latitude":"120.487029","direct":"","limit":""},{"CityName":"屏東縣","RegionName":"里港鄉","Address":"台3線里港鄉420.5K處南北雙向","DeptNm":"屏東縣政府警察局","BranchNm":"里港分局","Longitude":"22.797155","Latitude":"120.502095","direct":"","limit":""},{"CityName":"屏東縣","RegionName":"里港鄉","Address":"里港鄉台3線414.7K土庫段南北雙向","DeptNm":"屏東縣政府警察局","BranchNm":"里港分局","Longitude":"22.797155","Latitude":"120.502095","direct":"","limit":""},{"CityName":"屏東縣","RegionName":"里港鄉","Address":"台3線428.4K九如玉水路段南北雙向","DeptNm":"屏東縣政府警察局","BranchNm":"里港分局","Longitude":"120.488330","Latitude":"22.718330","direct":"","limit":""},{"CityName":"屏東縣","RegionName":"里港鄉","Address":"台三線426.3K九如林森路口南下","DeptNm":"屏東縣政府警察局","BranchNm":"里港分局","Longitude":"120.489440","Latitude":"22.737500","direct":"","limit":""},{"CityName":"屏東縣","RegionName":"里港鄉","Address":"台3線424.3K九如南二高入口處北上","DeptNm":"屏東縣政府警察局","BranchNm":"里港分局","Longitude":"120.491390","Latitude":"22.750830","direct":"","limit":""},{"CityName":"屏東縣","RegionName":"里港鄉","Address":"台22線與台3線421.6K交會口北上","DeptNm":"屏東縣政府警察局","BranchNm":"里港分局","Longitude":"120.494170","Latitude":"22.772500","direct":"","limit":""},{"CityName":"屏東縣","RegionName":"里港鄉","Address":"台27線48.5K大仁東街路口南下","DeptNm":"屏東縣政府警察局","BranchNm":"里港分局","Longitude":"120.540830","Latitude":"22.726670","direct":"","limit":""},{"CityName":"屏東縣","RegionName":"內埔鄉","Address":"台1線內埔學人路口","DeptNm":"屏東縣政府警察局","BranchNm":"內埔分局","Longitude":"22.595239","Latitude":"120.557359","direct":"","limit":""},{"CityName":"屏東縣","RegionName":"內埔鄉","Address":"台1線內埔復興路口","DeptNm":"屏東縣政府警察局","BranchNm":"內埔分局","Longitude":"22.608299","Latitude":"120.559742","direct":"","limit":""},{"CityName":"屏東縣","RegionName":"內埔鄉","Address":"台一線405K內埔豐田段南北雙向","DeptNm":"屏東縣政府警察局","BranchNm":"內埔分局","Longitude":"120.558890","Latitude":"22.611940","direct":"","limit":""},{"CityName":"屏東縣","RegionName":"內埔鄉","Address":"屏東縣 內埔鄉 台一線內埔學人路口","DeptNm":"屏東縣政府警察局","BranchNm":"內埔分局","Longitude":"120.558890","Latitude":"22.611940","direct":"","limit":""},{"CityName":"屏東縣","RegionName":"內埔鄉","Address":"台24線14.8K久愛村口南下","DeptNm":"屏東縣政府警察局","BranchNm":"內埔分局","Longitude":"120.606110","Latitude":"22.722500","direct":"","limit":""},{"CityName":"屏東縣","RegionName":"枋寮鄉","Address":"台26線5.7K竹坑村口北上","DeptNm":"屏東縣政府警察局","BranchNm":"枋寮分局","Longitude":"22.135327","Latitude":"120.705066","direct":"","limit":""},{"CityName":"屏東縣","RegionName":"枋寮鄉","Address":"台一線447.7K內獅段南北雙向","DeptNm":"屏東縣政府警察局","BranchNm":"枋寮分局","Longitude":"22.384763","Latitude":"120.595036","direct":"","limit":""},{"CityName":"屏東縣","RegionName":"枋寮鄉","Address":"台17線265.3K名成汽車保養場前南下","DeptNm":"屏東縣政府警察局","BranchNm":"枋寮分局","Longitude":"120.541940","Latitude":"22.419720","direct":"","limit":""},{"CityName":"屏東縣","RegionName":"枋寮鄉","Address":"台一線432.4K南北雙向","DeptNm":"屏東縣政府警察局","BranchNm":"枋寮分局","Longitude":"120.580000","Latitude":"22.423330","direct":"","limit":""},{"CityName":"屏東縣","RegionName":"枋寮鄉","Address":"台一線35.6k南上","DeptNm":"屏東縣政府警察局","BranchNm":"枋寮分局","Longitude":"120.588432","Latitude":"22.404522","direct":"","limit":""},{"CityName":"屏東縣","RegionName":"枋寮鄉","Address":"台一線435.9K水底寮建興五叉路口南下","DeptNm":"屏東縣政府警察局","BranchNm":"枋寮分局","Longitude":"120.593610","Latitude":"22.388060","direct":"","limit":""},{"CityName":"屏東縣","RegionName":"枋寮鄉","Address":"台一線438.7K枋寮隆山路口南下","DeptNm":"屏東縣政府警察局","BranchNm":"枋寮分局","Longitude":"120.608060","Latitude":"22.367500","direct":"","limit":""},{"CityName":"屏東縣","RegionName":"枋寮鄉","Address":"台一線442.2K加祿段南下","DeptNm":"屏東縣政府警察局","BranchNm":"枋寮分局","Longitude":"120.615830","Latitude":"22.335000","direct":"","limit":""},{"CityName":"屏東縣","RegionName":"枋寮鄉","Address":"台一線446.3K內獅路口南北雙向","DeptNm":"屏東縣政府警察局","BranchNm":"枋寮分局","Longitude":"120.619170","Latitude":"22.331390","direct":"","limit":""},{"CityName":"屏東縣","RegionName":"枋寮鄉","Address":"台一線451.8K枋山國中路口北上","DeptNm":"屏東縣政府警察局","BranchNm":"枋寮分局","Longitude":"120.653330","Latitude":"22.263610","direct":"","limit":""},{"CityName":"屏東縣","RegionName":"新園鄉","Address":"187線港東路口","DeptNm":"屏東縣政府警察局","BranchNm":"東港分局","Longitude":"22.491622","Latitude":"120.478774","direct":"","limit":""},{"CityName":"屏東縣","RegionName":"崁頂鄉","Address":"崁頂鄉187線31.2K崁頂段南北雙向","DeptNm":"屏東縣政府警察局","BranchNm":"東港分局","Longitude":"22.515843","Latitude":"120.499121","direct":"","limit":""},{"CityName":"屏東縣","RegionName":"佳冬鄉","Address":"台17線與佳冬農校出口","DeptNm":"屏東縣政府警察局","BranchNm":"枋寮分局","Longitude":"22.409823","Latitude":"120.563710","direct":"","limit":""},{"CityName":"屏東縣","RegionName":"佳冬鄉","Address":"台一線428.5k北上","DeptNm":"屏東縣政府警察局","BranchNm":"枋寮分局","Longitude":"120.557392","Latitude":"22.448629","direct":"","limit":""},{"CityName":"屏東縣","RegionName":"車城鄉","Address":"台26線30公里處北上","DeptNm":"屏東縣政府警察局","BranchNm":"恆春分局","Longitude":"21.942952","Latitude":"120.802474","direct":"","limit":""},{"CityName":"屏東縣","RegionName":"車城鄉","Address":"台26線31.6公里灣仔路段南下","DeptNm":"屏東縣政府警察局","BranchNm":"恆春分局","Longitude":"22.037603","Latitude":"120.737729","direct":"","limit":""},{"CityName":"屏東縣","RegionName":"車城鄉","Address":"台26線14.4K車城分駐所前南下","DeptNm":"屏東縣政府警察局","BranchNm":"恆春分局","Longitude":"22.061512","Latitude":"120.716305","direct":"","limit":""},{"CityName":"屏東縣","RegionName":"滿州鄉","Address":"台26線3.7k南北雙向","DeptNm":"屏東縣政府警察局","BranchNm":"枋寮分局","Longitude":"120.692885","Latitude":"22.181366","direct":"","limit":""},{"CityName":"屏東縣","RegionName":"獅子鄉","Address":"台9線丹路段`","DeptNm":"屏東縣政府警察局","BranchNm":"潮州分局","Longitude":"22.210905","Latitude":"120.760472","direct":"","limit":""},{"CityName":"臺東縣","RegionName":"臺東市","Address":"臺9線389.45K(建和國小前)","DeptNm":"臺東縣警察局","BranchNm":"臺東分局","Longitude":"121.049599","Latitude":"22.716474","direct":"","limit":""},{"CityName":"臺東縣","RegionName":"臺東市","Address":"臺9線386.1K(蘇巴陽段)","DeptNm":"臺東縣警察局","BranchNm":"臺東分局","Longitude":"121.057084","Latitude":"22.743983","direct":"","limit":""},{"CityName":"臺東縣","RegionName":"臺東市","Address":"臺11線176K知本派出所前","DeptNm":"臺東縣警察局","BranchNm":"臺東分局","Longitude":"121.057166","Latitude":"22.705902","direct":"","limit":""},{"CityName":"臺東縣","RegionName":"臺東市","Address":"臺11線174.3K(聖母農莊前)","DeptNm":"臺東縣警察局","BranchNm":"臺東分局","Longitude":"121.072182","Latitude":"22.710924","direct":"","limit":""},{"CityName":"臺東縣","RegionName":"臺東市","Address":"臺9線381K(體育中學前)","DeptNm":"臺東縣警察局","BranchNm":"臺東分局","Longitude":"121.075411","Latitude":"22.771429","direct":"","limit":""},{"CityName":"臺東縣","RegionName":"臺東市","Address":"中興路與利嘉路口","DeptNm":"臺東縣警察局","BranchNm":"臺東分局","Longitude":"121.084303","Latitude":"22.774357","direct":"","limit":""},{"CityName":"臺東縣","RegionName":"臺東市","Address":"知本路與大學路口","DeptNm":"臺東縣警察局","BranchNm":"臺東分局","Longitude":"121.085335","Latitude":"22.720740","direct":"","limit":""},{"CityName":"臺東縣","RegionName":"臺東市","Address":"臺9線368.9K（綠色隧道北端）","DeptNm":"臺東縣警察局","BranchNm":"臺東分局","Longitude":"121.095026","Latitude":"22.800650","direct":"","limit":""},{"CityName":"臺東縣","RegionName":"臺東市","Address":"臺9線370.3K(十股段)","DeptNm":"臺東縣警察局","BranchNm":"臺東分局","Longitude":"121.105995","Latitude":"22.792590","direct":"","limit":""},{"CityName":"臺東縣","RegionName":"臺東市","Address":"臺11線168.7Ｋ(台糖加油站)","DeptNm":"臺東縣警察局","BranchNm":"臺東分局","Longitude":"121.120433","Latitude":"22.728712","direct":"","limit":""},{"CityName":"臺東縣","RegionName":"臺東市","Address":"更生路馬蘭榮家前","DeptNm":"臺東縣警察局","BranchNm":"臺東分局","Longitude":"121.131533","Latitude":"22.772708","direct":"","limit":""},{"CityName":"臺東縣","RegionName":"臺東市","Address":"正氣北路與大業路口","DeptNm":"臺東縣警察局","BranchNm":"臺東分局","Longitude":"121.131549","Latitude":"22.754997","direct":"","limit":""},{"CityName":"臺東縣","RegionName":"臺東市","Address":"更生路與中興路口","DeptNm":"臺東縣警察局","BranchNm":"臺東分局","Longitude":"121.136184","Latitude":"22.768042","direct":"","limit":""},{"CityName":"臺東縣","RegionName":"臺東市","Address":"馬亨亨大道(貓山段)","DeptNm":"臺東縣警察局","BranchNm":"臺東分局","Longitude":"121.137378","Latitude":"22.777982","direct":"","limit":""},{"CityName":"臺東縣","RegionName":"臺東市","Address":"新生路與正氣路口","DeptNm":"臺東縣警察局","BranchNm":"臺東分局","Longitude":"121.143147","Latitude":"22.757097","direct":"","limit":""},{"CityName":"臺東縣","RegionName":"臺東市","Address":"四維路與傳廣路口","DeptNm":"臺東縣警察局","BranchNm":"臺東分局","Longitude":"121.143676","Latitude":"22.765784","direct":"","limit":""},{"CityName":"臺東縣","RegionName":"臺東市","Address":"中興路與傳廣路口","DeptNm":"臺東縣警察局","BranchNm":"臺東分局","Longitude":"121.143762","Latitude":"22.767956","direct":"","limit":""},{"CityName":"臺東縣","RegionName":"臺東市","Address":"中華路與桂林北路口","DeptNm":"臺東縣警察局","BranchNm":"臺東分局","Longitude":"121.143786","Latitude":"22.747066","direct":"","limit":""},{"CityName":"臺東縣","RegionName":"臺東市","Address":"新生路與博愛路口","DeptNm":"臺東縣警察局","BranchNm":"臺東分局","Longitude":"121.145894","Latitude":"22.754426","direct":"","limit":""},{"CityName":"臺東縣","RegionName":"臺東市","Address":"新生路與中山路口","DeptNm":"臺東縣警察局","BranchNm":"臺東分局","Longitude":"121.148074","Latitude":"22.752714","direct":"","limit":""},{"CityName":"臺東縣","RegionName":"臺東市","Address":"更生路與博愛路口","DeptNm":"臺東縣警察局","BranchNm":"臺東分局","Longitude":"121.149148","Latitude":"22.757880","direct":"","limit":""},{"CityName":"臺東縣","RegionName":"臺東市","Address":"四維路與浙江路口","DeptNm":"臺東縣警察局","BranchNm":"臺東分局","Longitude":"121.149448","Latitude":"22.765765","direct":"","limit":""},{"CityName":"臺東縣","RegionName":"臺東市","Address":"中山路與更生路口","DeptNm":"臺東縣警察局","BranchNm":"臺東分局","Longitude":"121.151044","Latitude":"22.755735","direct":"","limit":""},{"CityName":"臺東縣","RegionName":"臺東市","Address":"中正路與中山路口","DeptNm":"臺東縣警察局","BranchNm":"臺東分局","Longitude":"121.152015","Latitude":"22.756833","direct":"","limit":""},{"CityName":"臺東縣","RegionName":"臺東市","Address":"中華路與中正路口","DeptNm":"臺東縣警察局","BranchNm":"臺東分局","Longitude":"121.154016","Latitude":"22.755127","direct":"","limit":""},{"CityName":"臺東縣","RegionName":"臺東市","Address":"臨海路與大同路口","DeptNm":"臺東縣警察局","BranchNm":"臺東分局","Longitude":"121.156590","Latitude":"22.750482","direct":"","limit":""},{"CityName":"臺東縣","RegionName":"臺東市","Address":"馬亨亨大道與中山路口","DeptNm":"臺東縣警察局","BranchNm":"臺東分局","Longitude":"121.157958","Latitude":"22.762591","direct":"","limit":""},{"CityName":"臺東縣","RegionName":"臺東市","Address":"中華路與強國街口","DeptNm":"臺東縣警察局","BranchNm":"臺東分局","Longitude":"121.158105","Latitude":"22.759421","direct":"","limit":""},{"CityName":"臺東縣","RegionName":"臺東市","Address":"臺11線159.7K(中華大橋北端)","DeptNm":"臺東縣警察局","BranchNm":"臺東分局","Longitude":"121.176338","Latitude":"22.777752","direct":"","limit":""},{"CityName":"臺東縣","RegionName":"臺東市","Address":"臺11線157.4Ｋ(富崗派出所前)","DeptNm":"臺東縣警察局","BranchNm":"臺東分局","Longitude":"121.193969","Latitude":"22.794357","direct":"","limit":""},{"CityName":"臺東縣","RegionName":"成功鎮","Address":"臺11線127.65K(小馬段)","DeptNm":"臺東縣警察局","BranchNm":"成功分局","Longitude":"121.315648","Latitude":"22.996929","direct":"","limit":""},{"CityName":"臺東縣","RegionName":"成功鎮","Address":"臺11線123.75K(都歷段)","DeptNm":"臺東縣警察局","BranchNm":"成功分局","Longitude":"121.332156","Latitude":"23.027685","direct":"","limit":""},{"CityName":"臺東縣","RegionName":"成功鎮","Address":"臺11線112.4K(芝田段)","DeptNm":"臺東縣警察局","BranchNm":"成功分局","Longitude":"121.383512","Latitude":"23.108957","direct":"","limit":""},{"CityName":"臺東縣","RegionName":"成功鎮","Address":"臺11線106.9K(美山段)","DeptNm":"臺東縣警察局","BranchNm":"成功分局","Longitude":"121.398588","Latitude":"23.153486","direct":"","limit":""},{"CityName":"臺東縣","RegionName":"關山鎮","Address":"臺9線339.8K(瑞豐派出所前)","DeptNm":"臺東縣警察局","BranchNm":"關山分局","Longitude":"121.140933","Latitude":"22.987512","direct":"","limit":""},{"CityName":"臺東縣","RegionName":"關山鎮","Address":"臺9線331.55K（米國學校）","DeptNm":"臺東縣警察局","BranchNm":"關山分局","Longitude":"121.169291","Latitude":"23.061592","direct":"","limit":""},{"CityName":"臺東縣","RegionName":"卑南鄉","Address":"臺9乙線7.4k(利嘉段)","DeptNm":"臺東縣警察局","BranchNm":"臺東分局","Longitude":"121.063999","Latitude":"22.775743","direct":"","limit":""},{"CityName":"臺東縣","RegionName":"卑南鄉","Address":"臺9線366.5k(美農段)","DeptNm":"臺東縣警察局","BranchNm":"臺東分局","Longitude":"121.090612","Latitude":"22.821239","direct":"","limit":""},{"CityName":"臺東縣","RegionName":"卑南鄉","Address":"初鹿村忠孝路與文泰路口","DeptNm":"臺東縣警察局","BranchNm":"臺東分局","Longitude":"121.092276","Latitude":"22.857074","direct":"","limit":""},{"CityName":"臺東縣","RegionName":"卑南鄉","Address":"臺9線368.1K(賓朗段)","DeptNm":"臺東縣警察局","BranchNm":"臺東分局","Longitude":"121.092321","Latitude":"22.807805","direct":"","limit":""},{"CityName":"臺東縣","RegionName":"卑南鄉","Address":"臺11線153.4k(富山段)","DeptNm":"臺東縣警察局","BranchNm":"臺東分局","Longitude":"121.188904","Latitude":"22.821447","direct":"","limit":""},{"CityName":"臺東縣","RegionName":"鹿野鄉","Address":"臺9線356.7K(鹿鳴橋北端)","DeptNm":"臺東縣警察局","BranchNm":"關山分局","Longitude":"121.095136","Latitude":"22.893962","direct":"","limit":""},{"CityName":"臺東縣","RegionName":"鹿野鄉","Address":"臺9線356.1K(四維段)","DeptNm":"臺東縣警察局","BranchNm":"關山分局","Longitude":"121.096494","Latitude":"22.898181","direct":"","limit":""},{"CityName":"臺東縣","RegionName":"鹿野鄉","Address":"臺9線346.7K(永隆段)","DeptNm":"臺東縣警察局","BranchNm":"關山分局","Longitude":"121.143079","Latitude":"22.938002","direct":"","limit":""},{"CityName":"臺東縣","RegionName":"池上鄉","Address":"臺9線325K新興段","DeptNm":"臺東縣警察局","BranchNm":"關山分局","Longitude":"121.202832","Latitude":"23.107686","direct":"","limit":""},{"CityName":"臺東縣","RegionName":"東河鄉","Address":"臺11線141.7K(興隆國小前)","DeptNm":"臺東縣警察局","BranchNm":"成功分局","Longitude":"121.247803","Latitude":"22.895144","direct":"","limit":""},{"CityName":"臺東縣","RegionName":"東河鄉","Address":"臺11線137.4K(隆昌段)","DeptNm":"臺東縣警察局","BranchNm":"成功分局","Longitude":"121.268303","Latitude":"22.926652","direct":"","limit":""},{"CityName":"臺東縣","RegionName":"東河鄉","Address":"臺11線132.1K(東河段)","DeptNm":"臺東縣警察局","BranchNm":"成功分局","Longitude":"121.296277","Latitude":"22.962713","direct":"","limit":""},{"CityName":"臺東縣","RegionName":"長濱鄉","Address":"臺30線27.7K(玉長公路)","DeptNm":"臺東縣警察局","BranchNm":"成功分局","Longitude":"121.374014","Latitude":"23.266609","direct":"","limit":""},{"CityName":"臺東縣","RegionName":"長濱鄉","Address":"臺11線97.9K(膽曼段)","DeptNm":"臺東縣警察局","BranchNm":"成功分局","Longitude":"121.413387","Latitude":"23.223275","direct":"","limit":""},{"CityName":"臺東縣","RegionName":"長濱鄉","Address":"臺11線83.7K（城子埔段）","DeptNm":"臺東縣警察局","BranchNm":"成功分局","Longitude":"121.464151","Latitude":"23.333346","direct":"","limit":""},{"CityName":"臺東縣","RegionName":"長濱鄉","Address":"臺11線78.3K(大俱來)","DeptNm":"臺東縣警察局","BranchNm":"成功分局","Longitude":"121.471837","Latitude":"23.379983","direct":"","limit":""},{"CityName":"臺東縣","RegionName":"太麻里鄉","Address":"臺9線406.8K(新香蘭段)","DeptNm":"臺東縣警察局","BranchNm":"大武分局","Longitude":"120.992979","Latitude":"22.580520","direct":"","limit":""},{"CityName":"臺東縣","RegionName":"太麻里鄉","Address":"臺9線401.1K(北里段)","DeptNm":"臺東縣警察局","BranchNm":"大武分局","Longitude":"121.012537","Latitude":"22.626123","direct":"","limit":""},{"CityName":"臺東縣","RegionName":"太麻里鄉","Address":"臺9線396.7K(華源段)","DeptNm":"臺東縣警察局","BranchNm":"大武分局","Longitude":"121.028694","Latitude":"22.662472","direct":"","limit":""},{"CityName":"臺東縣","RegionName":"太麻里鄉","Address":"臺9線395.2K(三和國小前)","DeptNm":"臺東縣警察局","BranchNm":"大武分局","Longitude":"121.037972","Latitude":"22.672578","direct":"","limit":""},{"CityName":"臺東縣","RegionName":"太麻里鄉","Address":"臺9線393.9K(美和派出所前)","DeptNm":"臺東縣警察局","BranchNm":"大武分局","Longitude":"121.043503","Latitude":"22.684385","direct":"","limit":""},{"CityName":"臺東縣","RegionName":"大武鄉","Address":"臺9線440K(南興地磅站前)","DeptNm":"臺東縣警察局","BranchNm":"大武分局","Longitude":"120.891871","Latitude":"22.323227","direct":"","limit":""},{"CityName":"臺東縣","RegionName":"大武鄉","Address":"臺9線434.67K(大武國中前)","DeptNm":"臺東縣警察局","BranchNm":"大武分局","Longitude":"120.907686","Latitude":"22.364501","direct":"","limit":""},{"CityName":"臺東縣","RegionName":"達仁鄉","Address":"臺9線443.4K(達仁段)","DeptNm":"臺東縣警察局","BranchNm":"大武分局","Longitude":"120.885115","Latitude":"22.294631","direct":"","limit":""},{"CityName":"花蓮縣","RegionName":"花蓮市","Address":"府前路與北興路口","DeptNm":"花蓮縣警察局","BranchNm":"花蓮分局","Longitude":"121.464844","Latitude":"23.785345","direct":"南下","limit":""},{"CityName":"花蓮縣","RegionName":"花蓮市","Address":"中央路豐村路口","DeptNm":"花蓮縣警察局","BranchNm":"花蓮分局","Longitude":"121.600830","Latitude":"24.003060","direct":"北上車道","limit":""},{"CityName":"花蓮縣","RegionName":"花蓮市","Address":"尚志路18-1號前","DeptNm":"花蓮縣警察局","BranchNm":"花蓮分局","Longitude":"121.610670","Latitude":"23.990095","direct":"南下車道","limit":"50"},{"CityName":"花蓮縣","RegionName":"鳳林鎮","Address":"台九線248.9K","DeptNm":"花蓮縣警察局","BranchNm":"鳳林分局","Longitude":"121.423060","Latitude":"23.672220","direct":"南下車道","limit":"60"},{"CityName":"花蓮縣","RegionName":"鳳林鎮","Address":"公正路與信義路口","DeptNm":"花蓮縣警察局","BranchNm":"鳳林分局","Longitude":"121.451866","Latitude":"23.744798","direct":"北上車道","limit":""},{"CityName":"花蓮縣","RegionName":"鳳林鎮","Address":"台九線223K","DeptNm":"花蓮縣警察局","BranchNm":"吉安分局","Longitude":"121.452220","Latitude":"23.744440","direct":"南","limit":"70"},{"CityName":"花蓮縣","RegionName":"鳳林鎮","Address":"台11線54.9K","DeptNm":"花蓮縣警察局","BranchNm":"鳳林分局","Longitude":"121.519775","Latitude":"23.561470","direct":"北上車道","limit":"40"},{"CityName":"花蓮縣","RegionName":"鳳林鎮","Address":"台9線262.5K","DeptNm":"花蓮縣警察局","BranchNm":"鳳林分局","Longitude":"121.569214","Latitude":"23.907182","direct":"南下車道","limit":"60"},{"CityName":"花蓮縣","RegionName":"鳳林鎮","Address":"台9線270.4K","DeptNm":"花蓮縣警察局","BranchNm":"鳳林分局","Longitude":"121.576080","Latitude":"23.920364","direct":"南下車道","limit":"70"},{"CityName":"花蓮縣","RegionName":"鳳林鎮","Address":"台9線245.6K","DeptNm":"花蓮縣警察局","BranchNm":"鳳林分局","Longitude":"121.578140","Latitude":"23.906555","direct":"北上車道","limit":"70"},{"CityName":"花蓮縣","RegionName":"鳳林鎮","Address":"台11線44.6k","DeptNm":"花蓮縣警察局","BranchNm":"鳳林分局","Longitude":"121.580200","Latitude":"23.981234","direct":"北上車道","limit":"60"},{"CityName":"花蓮縣","RegionName":"玉里鎮","Address":"興國路與自由街口","DeptNm":"花蓮縣警察局","BranchNm":"玉里分局","Longitude":"23.335498","Latitude":"121.319896","direct":"南下車道","limit":""},{"CityName":"花蓮縣","RegionName":"玉里鎮","Address":"台30線27.2K","DeptNm":"花蓮縣警察局","BranchNm":"玉里分局","Longitude":"121.297302","Latitude":"23.367471","direct":"東往西向","limit":"50"},{"CityName":"花蓮縣","RegionName":"玉里鎮","Address":"台9線284.9K","DeptNm":"花蓮縣警察局","BranchNm":"玉里分局","Longitude":"121.311035","Latitude":"23.407806","direct":"南下車道","limit":"60"},{"CityName":"花蓮縣","RegionName":"玉里鎮","Address":"台9線315.3K","DeptNm":"花蓮縣警察局","BranchNm":"玉里分局","Longitude":"121.333008","Latitude":"23.339734","direct":"北上車道","limit":"60"},{"CityName":"花蓮縣","RegionName":"新城鄉","Address":"台九線192.5K","DeptNm":"花蓮縣警察局","BranchNm":"新城分局","Longitude":"121.606390","Latitude":"24.058060","direct":"北上車道","limit":"70"},{"CityName":"花蓮縣","RegionName":"新城鄉","Address":"台九線181K","DeptNm":"花蓮縣警察局","BranchNm":"新城分局","Longitude":"121.621110","Latitude":"24.106940","direct":"北上車道","limit":"60"},{"CityName":"花蓮縣","RegionName":"新城鄉","Address":"台九線186.2K","DeptNm":"花蓮縣警察局","BranchNm":"新城分局","Longitude":"121.635830","Latitude":"24.115000","direct":"南下車道","limit":"70"},{"CityName":"花蓮縣","RegionName":"新城鄉","Address":"台九線179.9K","DeptNm":"花蓮縣警察局","BranchNm":"新城分局","Longitude":"121.651940","Latitude":"24.162780","direct":"南下車道","limit":"60"},{"CityName":"花蓮縣","RegionName":"新城鄉","Address":"台九線158.5K","DeptNm":"花蓮縣警察局","BranchNm":"新城分局","Longitude":"121.745830","Latitude":"24.313060","direct":"北上車道","limit":"50"},{"CityName":"花蓮縣","RegionName":"新城鄉","Address":"台九線157.1K","DeptNm":"花蓮縣警察局","BranchNm":"新城分局","Longitude":"121.752240","Latitude":"24.298421","direct":"南下車道","limit":"50"},{"CityName":"花蓮縣","RegionName":"吉安鄉","Address":"台11丙線4.4K","DeptNm":"花蓮縣警察局","BranchNm":"吉安分局","Longitude":"121.437378","Latitude":"23.780318","direct":"南下車道","limit":"70"},{"CityName":"花蓮縣","RegionName":"吉安鄉","Address":"台11丙線14.2K","DeptNm":"花蓮縣警察局","BranchNm":"吉安分局","Longitude":"121.467590","Latitude":"23.868257","direct":"北上車道","limit":"70"},{"CityName":"花蓮縣","RegionName":"吉安鄉","Address":"台11線11K","DeptNm":"花蓮縣警察局","BranchNm":"吉安分局","Longitude":"121.486816","Latitude":"23.780318","direct":"北上車道","limit":"60"},{"CityName":"花蓮縣","RegionName":"吉安鄉","Address":"台9線223K","DeptNm":"花蓮縣警察局","BranchNm":"吉安分局","Longitude":"121.543121","Latitude":"23.890860","direct":"南下車道","limit":"70"},{"CityName":"花蓮縣","RegionName":"吉安鄉","Address":"臺9丙線7K","DeptNm":"花蓮縣警察局","BranchNm":"吉安分局","Longitude":"121.553507","Latitude":"23.958568","direct":"南下車道","limit":"60"},{"CityName":"花蓮縣","RegionName":"吉安鄉","Address":"台9線227K","DeptNm":"花蓮縣警察局","BranchNm":"吉安分局","Longitude":"121.573334","Latitude":"23.898708","direct":"北上車道","limit":"70"},{"CityName":"花蓮縣","RegionName":"吉安鄉","Address":"中央路建國路口","DeptNm":"花蓮縣警察局","BranchNm":"吉安分局","Longitude":"121.587780","Latitude":"23.986940","direct":"南下車道","limit":""},{"CityName":"澎湖縣","RegionName":"馬公市","Address":"縣道203線5.3K","DeptNm":"澎湖縣政府警察局","BranchNm":"馬公分局","Longitude":"119.568181","Latitude":"23.567697","direct":"北向南","limit":"50"},{"CityName":"澎湖縣","RegionName":"馬公市","Address":"縣道201線6.6K","DeptNm":"澎湖縣政府警察局","BranchNm":"馬公分局","Longitude":"119.573157","Latitude":"23.522303","direct":"東向西","limit":"50"},{"CityName":"澎湖縣","RegionName":"馬公市","Address":"縣道201線5.6K","DeptNm":"澎湖縣政府警察局","BranchNm":"馬公分局","Longitude":"119.578457","Latitude":"23.519647","direct":"東向西","limit":"50"},{"CityName":"澎湖縣","RegionName":"馬公市","Address":"縣道201線1.7K","DeptNm":"澎湖縣政府警察局","BranchNm":"馬公分局","Longitude":"119.600794","Latitude":"23.534658","direct":"南向北","limit":"70"},{"CityName":"澎湖縣","RegionName":"馬公市","Address":"縣道204線2.7K","DeptNm":"澎湖縣政府警察局","BranchNm":"馬公分局","Longitude":"119.601610","Latitude":"23.557850","direct":"西向東","limit":"70"},{"CityName":"澎湖縣","RegionName":"馬公市","Address":"縣道202線0.3K","DeptNm":"澎湖縣政府警察局","BranchNm":"馬公分局","Longitude":"119.603090","Latitude":"23.568865","direct":"東向西","limit":"50"},{"CityName":"澎湖縣","RegionName":"馬公市","Address":"縣道204線4K","DeptNm":"澎湖縣政府警察局","BranchNm":"馬公分局","Longitude":"119.614892","Latitude":"23.549904","direct":"東向西","limit":"50"},{"CityName":"澎湖縣","RegionName":"馬公市","Address":"縣道204線4.6K","DeptNm":"澎湖縣政府警察局","BranchNm":"馬公分局","Longitude":"119.619548","Latitude":"23.548310","direct":"南向北","limit":"50"},{"CityName":"澎湖縣","RegionName":"湖西鄉","Address":"縣道203線8K","DeptNm":"澎湖縣政府警察局","BranchNm":"馬公分局","Longitude":"119.605322","Latitude":"23.579406","direct":"北向南","limit":"70"},{"CityName":"澎湖縣","RegionName":"湖西鄉","Address":"縣道202線1.7K","DeptNm":"澎湖縣政府警察局","BranchNm":"馬公分局","Longitude":"119.612703","Latitude":"23.570360","direct":"北向南","limit":"70"},{"CityName":"澎湖縣","RegionName":"湖西鄉","Address":"縣道203線6.1K","DeptNm":"澎湖縣政府警察局","BranchNm":"馬公分局","Longitude":"119.631537","Latitude":"23.560315","direct":"南向北","limit":"50"},{"CityName":"澎湖縣","RegionName":"湖西鄉","Address":"縣道204線6.7K","DeptNm":"澎湖縣政府警察局","BranchNm":"馬公分局","Longitude":"119.634826","Latitude":"23.560801","direct":"南向北","limit":"50"},{"CityName":"澎湖縣","RegionName":"湖西鄉","Address":"縣道202線5K","DeptNm":"澎湖縣政府警察局","BranchNm":"馬公分局","Longitude":"119.636908","Latitude":"23.581766","direct":"西向東","limit":"50"},{"CityName":"澎湖縣","RegionName":"湖西鄉","Address":"縣道204線7.65K","DeptNm":"澎湖縣政府警察局","BranchNm":"馬公分局","Longitude":"119.642894","Latitude":"23.562787","direct":"西向東","limit":"50"},{"CityName":"澎湖縣","RegionName":"湖西鄉","Address":"縣道202號9.9K","DeptNm":"澎湖縣政府警察局","BranchNm":"馬公分局","Longitude":"119.659563","Latitude":"23.584875","direct":"南向北","limit":"50"},{"CityName":"澎湖縣","RegionName":"湖西鄉","Address":"縣道204線10.15K","DeptNm":"澎湖縣政府警察局","BranchNm":"馬公分局","Longitude":"119.666541","Latitude":"23.565207","direct":"西向東","limit":"50"},{"CityName":"澎湖縣","RegionName":"白沙鄉","Address":"縣道203線12.3K","DeptNm":"澎湖縣政府警察局","BranchNm":"白沙分局","Longitude":"119.535971","Latitude":"23.635973","direct":"北向南","limit":"50"},{"CityName":"澎湖縣","RegionName":"白沙鄉","Address":"縣道203線19.9K","DeptNm":"澎湖縣政府警察局","BranchNm":"白沙分局","Longitude":"119.560304","Latitude":"23.660504","direct":"西向東","limit":"70"},{"CityName":"澎湖縣","RegionName":"白沙鄉","Address":"縣道203線17.8K","DeptNm":"澎湖縣政府警察局","BranchNm":"白沙分局","Longitude":"119.574766","Latitude":"23.667441","direct":"北向南","limit":"70"},{"CityName":"澎湖縣","RegionName":"白沙鄉","Address":"澎8號道瓦硐段","DeptNm":"澎湖縣政府警察局","BranchNm":"白沙分局","Longitude":"119.586568","Latitude":"23.654981","direct":"東向西","limit":"50"},{"CityName":"澎湖縣","RegionName":"白沙鄉","Address":"縣道203線14K","DeptNm":"澎湖縣政府警察局","BranchNm":"白沙分局","Longitude":"119.599335","Latitude":"23.649065","direct":"北向南","limit":"50"},{"CityName":"澎湖縣","RegionName":"白沙鄉","Address":"白沙鄉赤崁村聯外橋樑北端出口岔路","DeptNm":"澎湖縣政府警察局","BranchNm":"白沙分局","Longitude":"119.602768","Latitude":"23.666450","direct":"南向北","limit":"40"},{"CityName":"澎湖縣","RegionName":"白沙鄉","Address":"縣道203號線9.5K","DeptNm":"澎湖縣政府警察局","BranchNm":"白沙分局","Longitude":"119.613154","Latitude":"23.601106","direct":"北向南","limit":"50"},{"CityName":"澎湖縣","RegionName":"西嶼鄉","Address":"縣道203線31.6K","DeptNm":"澎湖縣政府警察局","BranchNm":"白沙分局","Longitude":"119.506488","Latitude":"23.585345","direct":"北向南","limit":"50"},{"CityName":"澎湖縣","RegionName":"西嶼鄉","Address":"縣道203線30.4K","DeptNm":"澎湖縣政府警察局","BranchNm":"白沙分局","Longitude":"119.509492","Latitude":"23.599385","direct":"北向南","limit":"50"},{"CityName":"澎湖縣","RegionName":"西嶼鄉","Address":"縣道203線二崁與大池岔路口","DeptNm":"澎湖縣政府警察局","BranchNm":"白沙分局","Longitude":"119.514256","Latitude":"23.614250","direct":"南向北","limit":"70"},{"CityName":"澎湖縣","RegionName":"西嶼鄉","Address":"縣道203線24.8K","DeptNm":"澎湖縣政府警察局","BranchNm":"白沙分局","Longitude":"119.528675","Latitude":"23.636740","direct":"西向東","limit":"70"},{"CityName":"基隆市","RegionName":"中正區","Address":"台62甲1號隧道出口(0.7K處)","DeptNm":"基隆市警察局","BranchNm":"第二分局","Longitude":"121.739181","Latitude":"25.127600","direct":"南向北","limit":"40"},{"CityName":"基隆市","RegionName":"中正區","Address":"中正路信五路口","DeptNm":"基隆市警察局","BranchNm":"第二分局","Longitude":"121.745830","Latitude":"25.135560","direct":"南向北","limit":"50"},{"CityName":"基隆市","RegionName":"中正區","Address":"中正路中船路口(南口)","DeptNm":"基隆市警察局","BranchNm":"第二分局","Longitude":"121.749511","Latitude":"25.137762","direct":"北向南","limit":"50"},{"CityName":"基隆市","RegionName":"中正區","Address":"台62甲線、東海街口","DeptNm":"基隆市警察局","BranchNm":"第二分局","Longitude":"121.759065","Latitude":"25.138787","direct":"南向北","limit":"40"},{"CityName":"基隆市","RegionName":"中正區","Address":"北寧路(海洋大學前)","DeptNm":"基隆市警察局","BranchNm":"第二分局","Longitude":"121.777985","Latitude":"25.151018","direct":"南向北","limit":"50"},{"CityName":"基隆市","RegionName":"中正區","Address":"調和街154之3號旁","DeptNm":"基隆市警察局","BranchNm":"第二分局","Longitude":"121.796412","Latitude":"25.135090","direct":"北向南","limit":"50"},{"CityName":"基隆市","RegionName":"中正區","Address":"調和街242號對面處","DeptNm":"基隆市警察局","BranchNm":"第二分局","Longitude":"121.797780","Latitude":"25.133632","direct":"南向北","limit":"50"},{"CityName":"基隆市","RegionName":"七堵區","Address":"新台五路、福三街口(北向南)","DeptNm":"基隆市警察局","BranchNm":"第三分局","Longitude":"121.685341","Latitude":"25.114392","direct":"北向南","limit":"50"},{"CityName":"基隆市","RegionName":"七堵區","Address":"新台五路、福三街口(南向北)","DeptNm":"基隆市警察局","BranchNm":"第三分局","Longitude":"121.685341","Latitude":"25.114392","direct":"南向北","limit":"50"},{"CityName":"基隆市","RegionName":"七堵區","Address":"新台五線五堵橋頭(台5線19K+107)","DeptNm":"基隆市警察局","BranchNm":"第三分局","Longitude":"121.685341","Latitude":"25.114392","direct":"南向北","limit":"60"},{"CityName":"基隆市","RegionName":"七堵區","Address":"大埔交流道、大同街口","DeptNm":"基隆市警察局","BranchNm":"第三分局","Longitude":"121.690519","Latitude":"25.112894","direct":"西向東","limit":"40"},{"CityName":"基隆市","RegionName":"七堵區","Address":"明德三路(長春貨櫃)","DeptNm":"基隆市警察局","BranchNm":"第三分局","Longitude":"121.691110","Latitude":"25.078060","direct":"南向北","limit":"50"},{"CityName":"基隆市","RegionName":"七堵區","Address":"實踐路294巷口","DeptNm":"基隆市警察局","BranchNm":"第三分局","Longitude":"121.695398","Latitude":"25.087720","direct":"北向南","limit":"50"},{"CityName":"基隆市","RegionName":"七堵區","Address":"大華二路46號對面處","DeptNm":"基隆市警察局","BranchNm":"第三分局","Longitude":"121.696034","Latitude":"25.101782","direct":"東西雙向","limit":"50"},{"CityName":"基隆市","RegionName":"七堵區","Address":"萬瑞快速道路(台62線)3K+290(東行)","DeptNm":"基隆市警察局","BranchNm":"第三分局","Longitude":"121.697590","Latitude":"25.121502","direct":"西向東","limit":"80"},{"CityName":"基隆市","RegionName":"七堵區","Address":"萬瑞快速道路(台62線)3.4K(西行)","DeptNm":"基隆市警察局","BranchNm":"第三分局","Longitude":"121.697869","Latitude":"25.121832","direct":"東向西","limit":"80"},{"CityName":"基隆市","RegionName":"七堵區","Address":"工建西路、工建路口","DeptNm":"基隆市警察局","BranchNm":"第三分局","Longitude":"121.699440","Latitude":"25.092500","direct":"北向南","limit":"50"},{"CityName":"基隆市","RegionName":"七堵區","Address":"明德二路(台5線20.5K處)北向","DeptNm":"基隆市警察局","BranchNm":"第三分局","Longitude":"121.701497","Latitude":"25.080700","direct":"南向北","limit":"50"},{"CityName":"基隆市","RegionName":"七堵區","Address":"明德二路(台五線20K+422)南向","DeptNm":"基隆市警察局","BranchNm":"第三分局","Longitude":"121.701497","Latitude":"25.080700","direct":"北向南","limit":"50"},{"CityName":"基隆市","RegionName":"七堵區","Address":"明德二路2之1號前","DeptNm":"基隆市警察局","BranchNm":"第三分局","Longitude":"121.706649","Latitude":"25.090313","direct":"南向北","limit":"50"},{"CityName":"基隆市","RegionName":"七堵區","Address":"光明路106號前","DeptNm":"基隆市警察局","BranchNm":"第三分局","Longitude":"121.716191","Latitude":"25.097341","direct":"北向南","limit":"50"},{"CityName":"基隆市","RegionName":"七堵區","Address":"八堵路185巷口(北上)","DeptNm":"基隆市警察局","BranchNm":"第三分局","Longitude":"121.725280","Latitude":"25.103060","direct":"南向北","limit":"50"},{"CityName":"基隆市","RegionName":"七堵區","Address":"八堵路185巷口(南下)","DeptNm":"基隆市警察局","BranchNm":"第三分局","Longitude":"121.726390","Latitude":"25.103060","direct":"北向南","limit":"50"},{"CityName":"基隆市","RegionName":"七堵區","Address":"八堵路國安路口","DeptNm":"基隆市警察局","BranchNm":"第三分局","Longitude":"121.735000","Latitude":"25.111110","direct":"南向北","limit":"50"},{"CityName":"基隆市","RegionName":"七堵區","Address":"萬瑞快速道路(台62線)11K+280(西行)","DeptNm":"基隆市警察局","BranchNm":"第三分局","Longitude":"121.754820","Latitude":"25.102713","direct":"東向西","limit":"80"},{"CityName":"基隆市","RegionName":"七堵區","Address":"萬瑞快速道路(台62線)11K+470(東行)","DeptNm":"基隆市警察局","BranchNm":"第三分局","Longitude":"121.755578","Latitude":"25.102885","direct":"西向東","limit":"80"},{"CityName":"基隆市","RegionName":"暖暖區","Address":"過港路、寧靜街口","DeptNm":"基隆市警察局","BranchNm":"第三分局","Longitude":"121.736686","Latitude":"25.106227","direct":"東向西","limit":"50"},{"CityName":"基隆市","RegionName":"暖暖區","Address":"源遠路、暖暖街口","DeptNm":"基隆市警察局","BranchNm":"第三分局","Longitude":"121.739170","Latitude":"25.103060","direct":"西向東","limit":"50"},{"CityName":"基隆市","RegionName":"暖暖區","Address":"東勢街、暖濃橋口","DeptNm":"基隆市警察局","BranchNm":"第三分局","Longitude":"121.743319","Latitude":"25.087739","direct":"南向北","limit":"40"},{"CityName":"基隆市","RegionName":"暖暖區","Address":"東勢街與東安一號橋口","DeptNm":"基隆市警察局","BranchNm":"第三分局","Longitude":"121.743319","Latitude":"25.087739","direct":"南向北","limit":"40"},{"CityName":"基隆市","RegionName":"暖暖區","Address":"源遠路249巷口","DeptNm":"基隆市警察局","BranchNm":"第三分局","Longitude":"121.754440","Latitude":"25.099440","direct":"東向西","limit":"50"},{"CityName":"基隆市","RegionName":"暖暖區","Address":"基平隧道5K+120往基隆","DeptNm":"基隆市警察局","BranchNm":"第三分局","Longitude":"121.763932","Latitude":"25.066869","direct":"南向北","limit":"50"},{"CityName":"基隆市","RegionName":"暖暖區","Address":"基平隧道北端出口處往基隆","DeptNm":"基隆市警察局","BranchNm":"第三分局","Longitude":"121.763932","Latitude":"25.066869","direct":"南向北","limit":"40"},{"CityName":"基隆市","RegionName":"仁愛區","Address":"29號橋","DeptNm":"基隆市警察局","BranchNm":"第一分局","Longitude":"121.738890","Latitude":"25.128330","direct":"南向北","limit":"50"},{"CityName":"基隆市","RegionName":"仁愛區","Address":"南榮路509巷口","DeptNm":"基隆市警察局","BranchNm":"第一分局","Longitude":"121.740830","Latitude":"25.111940","direct":"南向北","limit":"50"},{"CityName":"基隆市","RegionName":"仁愛區","Address":"南榮路64巷口","DeptNm":"基隆市警察局","BranchNm":"第一分局","Longitude":"121.742880","Latitude":"25.123173","direct":"","limit":""},{"CityName":"基隆市","RegionName":"仁愛區","Address":"南榮路393巷口","DeptNm":"基隆市警察局","BranchNm":"第一分局","Longitude":"121.745560","Latitude":"25.119170","direct":"北向南","limit":"50"},{"CityName":"基隆市","RegionName":"中山區","Address":"西岸高架橋南下0K+460處","DeptNm":"基隆市警察局","BranchNm":"第四分局","Longitude":"121.440000","Latitude":"25.070000","direct":"北向南","limit":"50"},{"CityName":"基隆市","RegionName":"中山區","Address":"西岸高架橋北端路口處(火車站北口)","DeptNm":"基隆市警察局","BranchNm":"第四分局","Longitude":"121.440000","Latitude":"25.080000","direct":"南向北","limit":"50"},{"CityName":"基隆市","RegionName":"中山區","Address":"文化路116號前","DeptNm":"基隆市警察局","BranchNm":"第四分局","Longitude":"121.734197","Latitude":"25.153727","direct":"西向東","limit":"50"},{"CityName":"基隆市","RegionName":"中山區","Address":"中山一路57號前","DeptNm":"基隆市警察局","BranchNm":"第四分局","Longitude":"121.737362","Latitude":"25.131104","direct":"西向東","limit":"50"},{"CityName":"基隆市","RegionName":"中山區","Address":"中華路97巷口","DeptNm":"基隆市警察局","BranchNm":"第四分局","Longitude":"121.738013","Latitude":"25.147667","direct":"西向東","limit":"50"},{"CityName":"基隆市","RegionName":"安樂區","Address":"基金三路下坡路段","DeptNm":"基隆市警察局","BranchNm":"第四分局","Longitude":"121.693737","Latitude":"25.154260","direct":"西向東","limit":"50"},{"CityName":"基隆市","RegionName":"安樂區","Address":"基金三路、武隆街口","DeptNm":"基隆市警察局","BranchNm":"第四分局","Longitude":"121.693737","Latitude":"25.154260","direct":"西向東","limit":"50"},{"CityName":"基隆市","RegionName":"安樂區","Address":"基金三路、武聖街口","DeptNm":"基隆市警察局","BranchNm":"第四分局","Longitude":"121.695830","Latitude":"25.156390","direct":"東向西","limit":"50"},{"CityName":"基隆市","RegionName":"安樂區","Address":"基金三路、武訓街口(西向)","DeptNm":"基隆市警察局","BranchNm":"第四分局","Longitude":"121.696390","Latitude":"25.156390","direct":"東向西","limit":"50"},{"CityName":"基隆市","RegionName":"安樂區","Address":"基金三路、武訓街口(東向)","DeptNm":"基隆市警察局","BranchNm":"第四分局","Longitude":"121.696940","Latitude":"25.155560","direct":"西向東","limit":"50"},{"CityName":"基隆市","RegionName":"安樂區","Address":"基金二路、萬瑞快速道路(台62線)口","DeptNm":"基隆市警察局","BranchNm":"第四分局","Longitude":"121.700581","Latitude":"25.146944","direct":"西向東","limit":"50"},{"CityName":"基隆市","RegionName":"安樂區","Address":"萬瑞快速道路(台62線)、基金二路一巷口","DeptNm":"基隆市警察局","BranchNm":"第四分局","Longitude":"121.701766","Latitude":"25.137759","direct":"東向西","limit":"40"},{"CityName":"基隆市","RegionName":"安樂區","Address":"北濱公路(台2線)、武聖街144巷口","DeptNm":"基隆市警察局","BranchNm":"第四分局","Longitude":"121.702445","Latitude":"25.147414","direct":"西向東","limit":"50"},{"CityName":"基隆市","RegionName":"安樂區","Address":"基金一路135巷口","DeptNm":"基隆市警察局","BranchNm":"第四分局","Longitude":"121.709720","Latitude":"25.141940","direct":"西向東","limit":"50"},{"CityName":"基隆市","RegionName":"安樂區","Address":"基金一路208巷口","DeptNm":"基隆市警察局","BranchNm":"第四分局","Longitude":"121.710280","Latitude":"25.142780","direct":"東向西","limit":"50"},{"CityName":"基隆市","RegionName":"安樂區","Address":"基金一路、5B匝道口","DeptNm":"基隆市警察局","BranchNm":"第四分局","Longitude":"121.716110","Latitude":"25.140280","direct":"東向西","limit":"50"},{"CityName":"基隆市","RegionName":"安樂區","Address":"麥金路、樂利三街口","DeptNm":"基隆市警察局","BranchNm":"第四分局","Longitude":"121.719720","Latitude":"25.128330","direct":"東向西","limit":"50"},{"CityName":"基隆市","RegionName":"安樂區","Address":"麥金路749號前","DeptNm":"基隆市警察局","BranchNm":"第四分局","Longitude":"121.720855","Latitude":"25.134191","direct":"西向東","limit":"50"},{"CityName":"基隆市","RegionName":"安樂區","Address":"麥金路222號(長庚醫院)前","DeptNm":"基隆市警察局","BranchNm":"第四分局","Longitude":"121.721940","Latitude":"25.121110","direct":"東向西","limit":"50"},{"CityName":"基隆市","RegionName":"安樂區","Address":"安樂路二段127號(中華電信)前","DeptNm":"基隆市警察局","BranchNm":"第四分局","Longitude":"121.725235","Latitude":"25.122469","direct":"南向北","limit":"50"},{"CityName":"基隆市","RegionName":"安樂區","Address":"麥金路、樂利二街口","DeptNm":"基隆市警察局","BranchNm":"第四分局","Longitude":"121.726390","Latitude":"25.115830","direct":"東向西","limit":"50"},{"CityName":"基隆市","RegionName":"安樂區","Address":"安樂路一段、崇德街口","DeptNm":"基隆市警察局","BranchNm":"第四分局","Longitude":"121.733022","Latitude":"25.128411","direct":"南向北","limit":"50"},{"CityName":"基隆市","RegionName":"信義區","Address":"信二、義一路口","DeptNm":"基隆市警察局","BranchNm":"第二分局","Longitude":"121.745000","Latitude":"25.131940","direct":"北向南","limit":"50"},{"CityName":"基隆市","RegionName":"信義區","Address":"信一路義三路口","DeptNm":"基隆市警察局","BranchNm":"第二分局","Longitude":"121.746390","Latitude":"25.130000","direct":"東向西","limit":"50"},{"CityName":"基隆市","RegionName":"信義區","Address":"仁一、月眉路口","DeptNm":"基隆市警察局","BranchNm":"第二分局","Longitude":"121.756114","Latitude":"25.128010","direct":"西向東","limit":"50"},{"CityName":"基隆市","RegionName":"信義區","Address":"培德路2巷口","DeptNm":"基隆市警察局","BranchNm":"第二分局","Longitude":"121.769170","Latitude":"25.128060","direct":"東向西","limit":"50"},{"CityName":"基隆市","RegionName":"信義區","Address":"台62甲線孝東匝道口","DeptNm":"基隆市警察局","BranchNm":"第二分局","Longitude":"121.775750","Latitude":"25.130327","direct":"南向北","limit":"40"},{"CityName":"基隆市","RegionName":"信義區","Address":"深澳坑路118號前","DeptNm":"基隆市警察局","BranchNm":"第二分局","Longitude":"121.777220","Latitude":"25.130000","direct":"西向東","limit":""},{"CityName":"基隆市","RegionName":"信義區","Address":"深澳坑路118號前","DeptNm":"基隆市警察局","BranchNm":"第二分局","Longitude":"121.777220","Latitude":"25.130000","direct":"西向東","limit":"50"},{"CityName":"基隆市","RegionName":"信義區","Address":"深澳坑路240號旁","DeptNm":"基隆市警察局","BranchNm":"第二分局","Longitude":"121.788940","Latitude":"25.090574","direct":"西向東","limit":"50"},{"CityName":"新竹市","RegionName":"東區","Address":"柴橋路255巷口","DeptNm":"新竹市警察局","BranchNm":"第三分局","Longitude":"120.961734","Latitude":"24.762645","direct":"南向北","limit":"40"},{"CityName":"新竹市","RegionName":"東區","Address":"食品路、西大路口","DeptNm":"新竹市警察局","BranchNm":"第三分局","Longitude":"120.972679","Latitude":"24.794996","direct":"北向南","limit":"50"},{"CityName":"新竹市","RegionName":"東區","Address":"東大高架民族路上方","DeptNm":"新竹市警察局","BranchNm":"第二分局","Longitude":"120.973693","Latitude":"24.805871","direct":"西向東","limit":"50"},{"CityName":"新竹市","RegionName":"東區","Address":"公道五路四段127號前","DeptNm":"新竹市警察局","BranchNm":"第一分局","Longitude":"120.975636","Latitude":"24.825012","direct":"西向東","limit":"40"},{"CityName":"新竹市","RegionName":"東區","Address":"寶山路200巷口","DeptNm":"新竹市警察局","BranchNm":"第三分局","Longitude":"120.976872","Latitude":"24.790437","direct":"東向西","limit":"50"},{"CityName":"新竹市","RegionName":"東區","Address":"東大高架花園街上方","DeptNm":"新竹市警察局","BranchNm":"第二分局","Longitude":"120.976889","Latitude":"24.803887","direct":"東向西","limit":"50"},{"CityName":"新竹市","RegionName":"東區","Address":"經國路、鐵道路二段口","DeptNm":"新竹市警察局","BranchNm":"第一分局","Longitude":"120.981133","Latitude":"24.814763","direct":"北向南","limit":"50"},{"CityName":"新竹市","RegionName":"東區","Address":"寶山路317巷口(高峰植物園)","DeptNm":"新竹市警察局","BranchNm":"第三分局","Longitude":"120.982394","Latitude":"24.788257","direct":"東向西","limit":"50"},{"CityName":"新竹市","RegionName":"東區","Address":"自由路、民族路口","DeptNm":"新竹市警察局","BranchNm":"第二分局","Longitude":"120.982636","Latitude":"24.810917","direct":"東向西","limit":"50"},{"CityName":"新竹市","RegionName":"東區","Address":"光復路二段、學府路口","DeptNm":"新竹市警察局","BranchNm":"第二分局","Longitude":"120.986768","Latitude":"24.801134","direct":"西向東","limit":"50"},{"CityName":"新竹市","RegionName":"東區","Address":"中華路一段2巷137號","DeptNm":"新竹市警察局","BranchNm":"第二分局","Longitude":"120.986894","Latitude":"24.822032","direct":"西向東","limit":"40"},{"CityName":"新竹市","RegionName":"東區","Address":"中華路一段284巷口","DeptNm":"新竹市警察局","BranchNm":"第一分局","Longitude":"120.989275","Latitude":"24.812634","direct":"西向東","limit":"50"},{"CityName":"新竹市","RegionName":"東區","Address":"光復路二段、忠孝路口","DeptNm":"新竹市警察局","BranchNm":"第二分局","Longitude":"120.989832","Latitude":"24.800166","direct":"東向西","limit":"50"},{"CityName":"新竹市","RegionName":"東區","Address":"溪埔路與經國路一段156巷50弄口","DeptNm":"新竹市警察局","BranchNm":"第二分局","Longitude":"120.990605","Latitude":"24.817444","direct":"北向南","limit":"50"},{"CityName":"新竹市","RegionName":"東區","Address":"光復路二段、建中路口","DeptNm":"新竹市警察局","BranchNm":"第二分局","Longitude":"120.993313","Latitude":"24.799017","direct":"西向東","limit":"50"},{"CityName":"新竹市","RegionName":"東區","Address":"中華路一段、經國路一段口","DeptNm":"新竹市警察局","BranchNm":"第二分局","Longitude":"120.993420","Latitude":"24.815729","direct":"南向北","limit":"50"},{"CityName":"新竹市","RegionName":"東區","Address":"光復路二段、建功路口","DeptNm":"新竹市警察局","BranchNm":"第二分局","Longitude":"120.998013","Latitude":"24.795917","direct":"東向西","limit":"50"},{"CityName":"新竹市","RegionName":"東區","Address":"園區三路121號台積電旁(西北向東南-限速50公里)","DeptNm":"保二總隊","BranchNm":"保二第三大隊","Longitude":"120.998191","Latitude":"24.774435","direct":"","limit":""},{"CityName":"新竹市","RegionName":"東區","Address":"公道五路與慈雲路口","DeptNm":"新竹市警察局","BranchNm":"第二分局","Longitude":"121.013230","Latitude":"24.795370","direct":"南向北","limit":"50"},{"CityName":"新竹市","RegionName":"東區","Address":"關新路20號前","DeptNm":"新竹市警察局","BranchNm":"第二分局","Longitude":"121.018375","Latitude":"24.784631","direct":"北向南","limit":"30"},{"CityName":"新竹市","RegionName":"北區","Address":"西濱公路、海埔路口","DeptNm":"新竹市警察局","BranchNm":"第一分局","Longitude":"120.924501","Latitude":"24.818997","direct":"北向南","limit":"50"},{"CityName":"新竹市","RegionName":"北區","Address":"西濱公路、延平路三段口","DeptNm":"新竹市警察局","BranchNm":"第一分局","Longitude":"120.927341","Latitude":"24.827642","direct":"北向南","limit":"50"},{"CityName":"新竹市","RegionName":"北區","Address":"台68線榮濱路匝道口","DeptNm":"新竹市警察局","BranchNm":"第一分局","Longitude":"120.934101","Latitude":"24.845256","direct":"東向西","limit":"40"},{"CityName":"新竹市","RegionName":"北區","Address":"西濱公路、東大路四段口(北上)","DeptNm":"新竹市警察局","BranchNm":"第一分局","Longitude":"120.934122","Latitude":"24.842299","direct":"南向北","limit":"50"},{"CityName":"新竹市","RegionName":"北區","Address":"西濱公路、東大路四段口(南下)","DeptNm":"新竹市警察局","BranchNm":"第一分局","Longitude":"120.934198","Latitude":"24.842538","direct":"北向南","limit":"50"},{"CityName":"新竹市","RegionName":"北區","Address":"舊港1-1號前(舊港大橋)","DeptNm":"新竹市警察局","BranchNm":"第一分局","Longitude":"120.942742","Latitude":"24.844084","direct":"北向南","limit":"50"},